station_id,station_name,from_date,to_date,lat,lon,TMK_latest_date,TMK_latest_value,TNK_latest_date,TNK_latest_value,TXK_latest_date,TXK_latest_value,UPM_latest_date,UPM_latest_value
00044,Großenkneten,19690101,20250616,52.9336,8.2370,20250616,16.7,20250616,11.6,20250616,21.5,20250616,79.54
00073,Aldersbach-Kramersepp,19590301,20250616,48.6183,13.0620,20250616,17.8,20250616,14.0,20250616,21.9,20250616,77.96
00078,Alfhausen,19610101,20250616,52.4853,7.9125,20250616,17.0,20250616,11.9,20250616,22.5,20250616,76.63
00091,Alsfeld-Eifa,19781101,20250616,50.7446,9.3450,20250616,16.2,20250616,10.5,20250616,22.4,20250616,73.96
00096,Neuruppin-Alt,20190409,20250616,52.9437,12.8518,20250616,17.8,20250616,14.0,20250616,22.2,20250616,68.25
00102,Leuchtturm,19980101,20250616,53.8633,8.1275,20250616,15.7,20250616,14.5,20250616,17.3,20250616,82.92
00125,Altenstadt,19740301,20250616,47.8342,10.8667,20250616,14.9,,,,,20250616,78.46
00131,Geringswalde-Altgeringswalde,20041101,20250616,51.0881,12.9326,20250616,15.9,20250616,12.0,20250616,21.1,20250616,79.63
00142,Altomünster-Maisbrunn,19550101,20250616,48.4060,11.3117,20250616,17.2,20250616,13.4,20250616,22.2,20250616,74.08
00150,Alzey,19510101,20250616,49.7273,8.1164,20250616,18.0,20250616,12.4,20250616,24.7,20250616,69.92
00151,Amberg-Unterammersricht,19470101,20250616,49.4691,11.8546,20250616,17.9,20250616,12.1,20250616,23.5,20250616,67.96
00154,Amerang-Pfaffing,19940101,20250616,48.0197,12.2925,20250616,16.4,20250616,12.6,20250616,19.8,20250616,80.83
00161,Andernach,19801201,20250616,50.4237,7.4202,20250616,19.3,20250616,12.8,20250616,24.6,20250616,61.83
00164,Angermünde,19080517,20250616,53.0316,13.9908,20250616,18.2,20250616,14.5,20250616,23.1,20250616,66.83
00167,Anklam,20040901,20250616,53.8409,13.6854,20250616,17.5,20250616,14.3,20250616,21.4,20250616,74.67
00183,Arkona,19470101,20250616,54.6791,13.4344,20250616,15.8,20250616,14.0,20250616,18.9,20250616,85.96
00191,Arnstein-Müdesheim,19860401,20250616,49.9694,9.9114,20250616,17.9,20250616,10.6,20250616,23.9,20250616,69.21
00198,Artern,19540101,20250616,51.3744,11.2920,20250616,18.2,20250616,12.8,20250616,23.0,20250616,65.21
00217,Attenkam,19410101,20250616,47.8774,11.3643,20250616,15.7,20250616,13.4,20250616,19.2,20250616,76.92
00222,Aue,19770101,20250616,50.5908,12.7139,20250616,15.4,20250616,9.8,20250616,19.9,20250616,78.46
00232,Augsburg,19470101,20250616,48.4253,10.9417,20250616,16.7,20250616,13.0,20250616,21.3,20250616,76.04
00257,Baden-Baden-Geroldsau,19490101,20250616,48.7270,8.2457,20250616,17.7,20250616,12.2,20250616,23.1,20250616,72.25
00259,Müllheim,19470101,20250616,47.8064,7.6387,20250616,18.6,20250616,10.9,20250616,24.0,20250616,73.92
00282,Bamberg,19490101,20250616,49.8743,10.9206,20250616,18.1,20250616,9.9,20250616,23.5,20250616,62.46
00294,Barsinghausen-Hohenbostel,19920201,20250616,52.3199,9.4300,20250616,17.2,20250616,13.1,20250616,21.8,20250616,74.96
00298,Barth,19470101,20250616,54.3405,12.7108,20250616,17.0,20250616,14.6,20250616,20.6,20250616,78.42
00303,Baruth,19930906,20250616,52.0613,13.4997,20250616,17.6,20250616,10.7,20250616,23.0,20250616,67.67
00314,"Kubschütz,",19360101,20250616,51.1604,14.5042,20250616,16.4,20250616,13.8,20250616,20.2,20250616,82.25
00320,Heinersreuth-Vollhof,18790101,20250616,49.9666,11.5198,20250616,16.8,20250616,8.5,20250616,22.8,20250616,72.58
00330,Oberzent-Beerfelden,19370101,20250616,49.5617,8.9673,20250616,16.6,20250616,12.3,20250616,21.6,20250616,74.00
00342,Belm,20101201,20250616,52.3170,8.1694,20250616,17.3,20250616,11.7,20250616,22.5,20250616,74.04
00368,Bergen,19730101,20250616,52.8152,9.9248,20250616,16.5,,,,,20250616,73.58
00377,"Bergzabern,",19470101,20250616,49.1070,7.9967,20250616,19.1,20250616,15.2,20250616,23.7,20250616,65.29
00379,"Berka,",19540701,20250616,50.9075,11.2665,20250616,16.6,20250616,10.2,20250616,20.9,20250616,73.67
00390,"Berleburg,",19861201,20250616,50.9837,8.3683,20250616,14.8,20250616,9.6,20250616,19.3,20250616,73.88
00400,Berlin-Buch,19510101,20250616,52.6310,13.5021,20250616,17.9,20250616,14.0,20250616,22.7,20250616,68.00
00403,Berlin-Dahlem,19500101,20250616,52.4537,13.3017,20250616,18.2,20250616,15.2,20250616,22.6,20250616,67.63
00420,Berlin-Marzahn,19930501,20250616,52.5447,13.5598,20250616,18.6,20250616,15.9,20250616,23.2,20250616,65.33
00427,Berlin,19570101,20250616,52.3807,13.5306,20250616,18.3,20250616,12.8,20250616,23.2,20250616,64.38
00433,Berlin-Tempelhof,19480101,20250616,52.4676,13.4020,20250616,18.5,20250616,15.5,20250616,23.4,20250616,65.38
00445,Bernburg/Saale,18980101,20250616,51.8218,11.7110,20250616,17.8,20250616,13.6,20250616,24.0,20250616,69.50
00460,Berus,19510101,20250616,49.2641,6.6868,20250616,18.0,20250616,12.7,20250616,23.3,20250616,67.00
00535,Blankenrath,19470101,20250616,50.0372,7.3079,20250616,15.7,20250616,8.4,20250616,21.5,20250616,72.75
00555,Bochum,19400101,20250616,51.5026,7.2289,20250616,18.4,20250616,11.9,20250616,24.1,20250616,70.13
00591,Boizenburg,19470101,20250616,53.3911,10.6878,20250616,17.0,20250616,13.1,20250616,20.9,20250616,72.08
00596,Boltenhagen,19470101,20250616,54.0027,11.1908,20250616,17.0,20250616,13.7,20250616,21.5,20250616,78.25
00603,Königswinter-Heiderhof,19860801,20250616,50.7293,7.2040,20250616,18.2,20250616,11.1,20250616,23.3,20250616,70.67
00617,Borken,20040601,20250616,51.8730,6.8863,20250616,17.9,20250616,10.0,20250616,24.4,20250616,75.08
00656,Braunlage,19310101,20250616,51.7234,10.6021,20250616,14.0,20250616,9.9,20250616,19.0,20250616,74.79
00662,Braunschweig,19610101,20250616,52.2915,10.4464,20250616,17.2,20250616,12.8,20250616,21.7,20250616,69.29
00691,Bremen,18900101,20250616,53.0451,8.7981,20250616,17.2,20250616,11.2,20250616,21.5,20250616,75.29
00701,Bremerhaven,19490101,20250616,53.5332,8.5761,20250616,16.7,20250616,14.6,20250616,19.5,20250616,81.58
00704,Bremervörde,19790401,20250616,53.4451,9.1390,20250616,16.8,20250616,11.2,20250616,20.9,20250616,77.17
00722,Brocken,18960101,20250616,51.7986,10.6183,20250616,9.6,20250616,6.1,20250616,13.5,20250616,88.58
00755,"Buchen,",19350101,20250616,49.5182,9.3213,20250616,17.4,20250616,10.6,20250616,23.0,20250616,71.79
00757,Buchenbach,19901001,20250616,47.9625,7.9983,20250616,16.8,20250616,11.9,20250616,22.4,20250616,81.33
00760,Rosengarten-Klecken,19760601,20250616,53.3629,9.9435,20250616,16.8,20250616,12.3,20250616,21.0,20250616,76.54
00766,Büchel-Alflen,19650101,20250616,50.1745,7.0595,20250616,16.4,,,,,20250616,67.25
00769,Bückeburg,19720101,20250616,52.2817,9.0890,20250616,16.9,,,,,20250616,73.04
00817,Burgwald-Bottendorf,19521001,20250616,51.0306,8.8146,20250616,17.2,20250616,11.8,20250616,23.0,20250616,68.96
00840,Carlsfeld,19891201,20250616,50.4313,12.6114,20250616,11.8,20250616,7.2,20250616,15.3,20250616,87.04
00850,Celle,19740801,20250616,52.5959,10.0296,20250616,17.5,,,,,20250616,71.38
00853,Chemnitz,18820101,20250616,50.7913,12.8720,20250615,21.6,20250615,13.3,20250615,28.4,20250615,68.46
00856,Chieming,19980101,20250616,47.8843,12.5404,20250616,16.4,20250616,12.5,20250616,19.3,20250616,77.25
00860,Algermissen-Groß,20231001,20250616,52.2731,10.0163,20250616,17.4,20250616,11.6,20250616,22.1,20250616,71.25
00867,Lautertal-Oberlauter,19470101,20250616,50.3066,10.9679,20250616,17.2,20250616,10.6,20250616,22.6,20250616,67.04
00880,Cottbus,18870101,20250616,51.7759,14.3168,20250616,18.0,20250616,11.6,20250616,23.0,20250616,70.88
00891,Cuxhaven,19460101,20250616,53.8713,8.7060,20250616,16.7,20250616,14.8,20250616,20.3,20250616,75.33
00896,Dachwig,19490701,20250616,51.0778,10.8619,20250616,17.9,20250616,12.0,20250616,23.4,20250616,72.33
00917,Darmstadt,19950801,20250616,49.8809,8.6779,20250616,18.1,20250616,11.8,20250616,24.8,20250616,73.08
00953,Deuselbach,19500801,20250616,49.7619,7.0542,20250616,16.2,20250616,10.1,20250616,21.8,20250616,71.38
00954,UFS,19980101,20250616,54.1796,7.4587,20250616,14.7,20250615,14.4,20250615,16.4,20250616,90.29
00963,Diepholz,19520901,20250616,52.5881,8.3424,20250616,17.6,20250616,12.4,20250616,22.1,20250616,72.38
00983,Dillingen/Donau-Fristingen,20061201,20250616,48.5562,10.5600,20250616,17.3,20250616,12.9,20250616,23.1,20250616,72.92
00991,Dippoldiswalde-Reinberg,19540901,20250616,50.9116,13.7087,20250616,15.0,20250616,9.0,20250616,19.5,20250616,82.83
01001,Doberlug-Kirchhain,19480701,20250616,51.6451,13.5747,20250616,17.6,20250616,11.9,20250616,22.5,20250616,69.46
01048,Dresden-Klotzsche,19340101,20250616,51.1278,13.7543,20250616,16.8,20250616,13.8,20250616,20.4,20250616,74.54
01050,Dresden-Hosterwitz,19490101,20250616,51.0221,13.8470,20250616,17.2,20250616,12.1,20250616,21.3,20250616,74.42
01052,Möckern-Drewitz,19930501,20250616,52.2174,12.1641,20250616,17.9,20250616,12.0,20250616,23.7,20250616,65.96
01072,"Dürkheim,",19520101,20250616,49.4719,8.1929,20250616,19.5,20250616,14.2,20250616,24.9,20250616,62.88
01078,Düsseldorf,19520101,20250616,51.2960,6.7686,20250616,18.7,20250616,9.9,20250616,25.1,20250616,68.88
01103,Ebersberg-Halbing,19780101,20250616,48.1003,11.9872,20250616,16.0,20250616,13.0,20250616,19.6,20250616,80.38
01107,Ebrach,19630101,20250616,49.8520,10.4991,20250616,16.6,20250616,9.9,20250616,22.3,20250616,71.58
01161,Eichstätt-Landershofen,19550101,20250616,48.8778,11.2349,20250616,18.0,20250616,12.5,20250616,23.2,20250616,65.83
01197,Ellwangen-Rindelbach,19410101,20250616,48.9895,10.1312,20250616,16.8,20250616,10.6,20250616,22.9,20250616,72.42
01200,Elpersbüttel,19980101,20250616,54.0691,9.0105,20250616,16.3,20250616,14.4,20250616,19.1,20250616,78.67
01207,"Elster,",19480601,20250616,50.2705,12.2742,20250616,14.6,20250616,8.8,20250616,19.5,20250616,81.42
01214,Elzach-Fisnacht,19871101,20250616,48.2012,8.1088,20250616,17.0,20250616,12.9,20250616,22.6,20250616,78.83
01224,Emmendingen-Mundingen,19751101,20250616,48.1378,7.8351,20250616,18.6,20250616,12.9,20250616,23.5,20250616,71.83
01246,Ennigerloh-Ostenfelde,20150801,20250616,51.8418,8.0607,20250616,17.1,20250616,10.9,20250616,21.7,20250616,76.25
01255,Eppingen-Elsenz,20021201,20250616,49.1661,8.8483,20250616,18.1,20250616,12.8,20250616,23.4,20250616,76.04
01262,München-Flughafen,19920517,20250616,48.3477,11.8134,20250616,17.9,20250616,14.2,20250616,22.3,20250616,71.46
01266,Erfde,19640501,20250616,54.2992,9.3162,20250616,16.3,20250616,13.7,20250616,20.2,20250616,78.63
01270,Erfurt-Weimar,19510101,20250616,50.9829,10.9608,20250616,16.8,20250616,12.0,20250616,21.5,20250616,70.04
01279,Möhrendorf-Kleinseebach,19490101,20250616,49.6497,11.0075,20250616,18.8,20250616,11.7,20250616,24.5,20250616,57.79
01297,Eschwege,19470901,20250616,51.2041,10.0138,20250616,17.4,20250616,11.5,20250616,22.9,20250616,72.42
01300,Eslohe,19380101,20250616,51.2540,8.1565,20250616,16.3,20250616,10.2,20250616,21.7,20250616,73.17
01303,Essen-Bredeney,19350101,20250616,51.4041,6.9677,20250616,18.2,20250616,11.4,20250616,23.4,20250616,71.25
01327,Weilerswist-Lommersum,19370101,20250616,50.7119,6.7905,20250616,18.2,20250616,11.4,20250616,24.6,20250616,69.08
01332,"Falkenberg,Kr.Rottal-Inn",19660701,20250616,48.4832,12.7241,20250616,17.6,20250616,14.1,20250616,22.6,20250616,74.88
01339,Faßberg,19710101,20250616,52.9157,10.1885,20250616,16.5,,,,,20250616,74.21
01346,Feldberg/Schwarzwald,19450101,20250616,47.8748,8.0038,20250616,9.4,20250616,7.8,20250616,12.1,20250616,93.71
01357,Fichtelberg/Oberfranken-Hüttstadl,19480101,20250616,49.9807,11.8376,20250616,14.6,20250616,9.3,20250616,19.5,20250616,77.21
01358,Fichtelberg,18900801,20250616,50.4283,12.9536,20250616,9.4,20250616,7.7,20250616,12.2,20250616,94.54
01411,Birx/Rhön,19491001,20250616,50.5309,10.0479,20250616,14.2,20250616,10.7,20250616,18.7,20250616,75.63
01420,Frankfurt/Main,19350701,20250616,50.0259,8.5213,20250616,19.2,20250615,16.3,20250615,22.4,20250616,63.86
01424,Frankfurt/Main-Westend,19851101,20250616,50.1269,8.6694,20250616,19.6,20250616,13.7,20250616,24.4,20250616,61.42
01443,Freiburg,18740101,20250616,48.0232,7.8343,20250611,19.1,20250611,11.3,20250611,25.8,20250611,66.88
01451,Freiburg/Elbe,19701101,20250616,53.8277,9.2493,20250616,17.0,20250616,14.4,20250616,20.8,20250616,76.13
01468,Freudenstadt,19490101,20250616,48.4538,8.4090,20250616,14.6,20250616,10.6,20250616,19.5,20250616,76.58
01503,Friesoythe-Altenoythe,19470201,20250616,53.0643,7.9020,20250616,16.5,20250616,10.7,20250616,21.2,20250616,75.88
01504,Fritzlar/Eder,20000701,20250616,51.1190,9.2799,20250616,17.6,,,,,20250616,67.58
01526,Fulda-Horas,18850101,20250616,50.5668,9.6532,20250616,17.2,20250616,10.2,20250616,22.8,20250616,70.58
01544,Gardelegen,19360101,20250616,52.5129,11.3942,20250616,17.4,20250616,10.4,20250616,22.5,20250616,70.25
01550,Garmisch-Partenkirchen,19360101,20250616,47.4830,11.0621,20250616,15.1,20250616,12.3,20250616,18.1,20250616,80.38
01572,Geilenkirchen-Neutevern,19821201,20250616,50.9593,6.0392,20250616,19.1,,,,,20250616,64.92
01580,Geisenheim,18840701,20250616,49.9859,7.9548,20250616,19.5,20250616,13.3,20250616,25.6,20250616,61.04
01587,Gelbelsee,19980101,20250616,48.9481,11.4289,20250616,16.8,20250616,13.0,20250616,21.4,20250616,68.50
01590,Geldern-Walbeck,19631001,20250616,51.4942,6.2463,20250616,18.9,20250616,11.4,20250616,25.5,20250616,68.46
01602,Ohlsbach,19700101,20250616,48.4330,7.9930,20250616,19.1,20250616,13.9,20250616,24.9,20250616,70.42
01605,Genthin,19530101,20250616,52.3875,12.1602,20250616,18.1,20250616,11.1,20250616,23.5,20250616,64.00
01612,Gera-Leumnitz,19520101,20250616,50.8812,12.1289,20250616,17.0,20250616,12.9,20250616,21.1,20250616,74.29
01639,Gießen/Wettenberg,19390101,20250616,50.6017,8.6439,20250616,18.0,20250616,11.9,20250616,23.6,20250616,67.58
01645,Gilserberg-Moischeid,19490101,20250616,50.9656,9.0500,20250616,16.2,20250616,9.8,20250616,22.1,20250616,72.54
01666,Glücksburg-Meierwik,19710101,20250616,54.8273,9.5058,20250616,16.2,,,,,20250616,78.13
01684,Görlitz,18600101,20250616,51.1621,14.9506,20250616,16.2,20250616,12.8,20250616,18.6,20250616,84.54
01691,Göttingen,18580101,20250616,51.5002,9.9507,20250616,16.7,20250616,10.3,20250616,22.0,20250616,72.13
01694,Goldberg,19470101,20250616,53.6058,12.1034,20250616,16.9,20250616,13.6,20250616,21.0,20250616,73.88
01721,Gräfenberg-Kasberg,19910101,20250616,49.6640,11.2239,20250616,16.8,20250616,13.0,20250616,21.9,20250616,66.42
01735,Grainet-Rehberg,19951201,20250616,48.7894,13.6290,20250616,15.4,20250616,12.0,20250616,18.7,20250616,81.88
01736,Grambek,19510101,20250616,53.5731,10.6797,20250616,17.2,20250616,13.1,20250616,22.2,20250616,71.46
01757,Greifswald,18980301,20250616,54.0967,13.4056,20250616,17.3,20250616,14.7,20250616,21.1,20250616,75.25
01759,Greifswalder,19470801,20250616,54.2437,13.9104,20250616,16.9,20250616,14.7,20250616,18.7,20250616,81.79
01766,Münster/Osnabrück,19820101,20250616,52.1344,7.6969,20250616,17.9,20250616,10.5,20250616,23.2,20250616,72.46
01792,Groß,20200814,20250616,52.7553,7.4815,20250616,17.3,20250616,10.6,20250616,23.1,20250616,74.71
01803,Groß,19490701,20250616,54.0714,12.3238,20250616,16.8,20250616,14.3,20250616,20.6,20250616,78.83
01832,Großer,19821101,20250616,49.1129,13.1338,20250616,9.4,20250616,7.4,20250616,13.0,20250616,93.83
01863,Gründau-Breitenborn,19950301,20250616,50.2667,9.1854,20250616,17.5,20250616,12.3,20250616,23.5,20250616,72.71
01869,Grünow,19730101,20250616,53.3154,13.9339,20250616,17.2,20250616,12.1,20250616,21.6,20250616,73.04
01886,Günzburg,20091126,20250616,48.4878,10.2608,20250616,17.0,20250616,12.5,20250616,22.3,20250616,76.13
01964,Olsdorf,19520101,20250616,49.9445,6.3821,20250616,17.5,20250616,9.8,20250616,24.5,20250616,70.08
01975,Hamburg-Fuhlsbüttel,19360101,20250616,53.6332,9.9881,20250616,17.0,20250616,13.9,20250616,21.3,20250616,75.08
01981,Hamburg-Neuwiedenthal,19620501,20250616,53.4776,9.8957,20250616,17.4,20250616,13.7,20250616,21.8,20250616,72.50
02014,Hannover,19360101,20250616,52.4644,9.6779,20250616,17.1,20250616,11.8,20250616,22.6,20250616,72.67
02023,Harburg,19980101,20250616,48.7918,10.7062,20250616,16.7,20250616,13.1,20250616,21.7,20250616,72.25
02039,"Harzburg,",19360101,20250616,51.9002,10.5699,20250616,17.1,20250616,13.8,20250616,22.4,20250616,67.50
02044,Harzgerode,19450501,20250616,51.6520,11.1366,20250616,15.4,20250616,9.4,20250616,21.3,20250616,69.96
02074,Hechingen,19470101,20250616,48.3752,8.9800,20250616,16.0,20250616,10.6,20250616,21.2,20250616,78.50
02115,Helgoland,19520501,20250616,54.1750,7.8920,20250616,15.4,20250616,14.2,20250616,17.4,20250616,86.08
02171,"Hersfeld,",19490101,20250616,50.8520,9.7377,20250616,17.6,20250616,12.0,20250616,23.7,20250616,66.25
02174,Herzberg,19911001,20250616,51.6255,10.3695,20250616,16.7,20250616,11.7,20250616,22.2,20250616,72.79
02201,Hiddensee-Vitte,19310414,20250616,54.5750,13.1044,20250616,16.8,20250616,14.6,20250616,20.4,20250616,84.13
02211,Hilgenroth,19370101,20250616,50.7370,7.6525,20250616,17.2,20250616,11.5,20250616,22.7,20250616,70.29
02252,Bertsdorf-Hörnitz,19470101,20250616,50.8992,14.7456,20250616,15.9,20250616,11.0,20250616,19.2,20250616,81.71
02261,Hof,19470101,20250616,50.3123,11.8760,20250616,15.2,20250616,10.9,20250616,18.8,20250616,73.50
02290,Hohenpeißenberg,17810101,20250616,47.8009,11.0108,20250616,13.5,20250616,10.3,20250616,16.7,20250616,82.96
02303,Hohn,19690101,20250616,54.3162,9.5385,20250616,16.3,,,,,20250616,76.17
02306,Hohwacht,19771101,20250616,54.3194,10.6732,20250616,17.1,20250616,13.3,20250616,22.0,20250616,75.04
02315,Holzdorf-Bernsdorf,20000601,20250616,51.7657,13.1666,20250616,17.8,,,,,20250616,65.88
02319,Holzkirchen,19821201,20250616,47.8823,11.6961,20250616,15.8,20250616,13.1,20250616,18.7,20250616,76.71
02323,"Bevern,",19510101,20250616,51.8529,9.4953,20250616,17.6,20250616,11.9,20250616,22.5,20250616,72.25
02362,Hümmerich,19821001,20250616,50.5651,7.4843,20250616,17.1,20250616,11.3,20250616,22.0,20250616,67.29
02385,Idar-Oberstein,19740401,20250616,49.6927,7.3263,20250616,17.2,,,,,20250616,69.46
02410,Ingolstadt-Manching,19740101,20250616,48.7111,11.5363,20250616,18.3,,,,,20250616,64.83
02429,Itzehoe,19880301,20250613,53.9897,9.5697,20250612,15.5,20250612,5.7,20250612,22.1,20250612,69.50
02437,Schleswig-Jagel,19710101,20250616,54.4570,9.5203,20250616,16.3,,,,,20250616,76.83
02444,Jena,18210101,20250616,50.9251,11.5830,20250616,18.5,20250616,13.3,20250616,23.4,20250616,66.96
02480,Kahl/Main,19470101,20250616,50.0643,8.9930,20250616,19.1,20250616,13.4,20250616,24.6,20250616,67.96
02483,Kahler,19261101,20250616,51.1803,8.4891,20250616,13.1,20250616,9.1,20250616,16.1,20250616,78.00
02485,Kaisersbach-Cronhütte,20110501,20250616,48.9170,9.6871,20250616,16.2,20250616,9.8,20250616,21.3,20250616,73.25
02486,Kaiserslautern,19010101,20250616,49.4262,7.7557,20250616,18.1,20250616,13.0,20250616,24.5,20250616,71.54
02497,Kall-Sistig,19470101,20250616,50.5014,6.5264,20250616,15.8,20250616,8.6,20250616,21.5,20250616,70.79
02559,Kempten,19520101,20250616,47.7233,10.3348,20250616,15.4,20250616,11.2,20250616,20.2,20250616,78.29
02564,Kiel-Holtenau,19740101,20250616,54.3776,10.1424,20250616,16.5,20250616,12.8,20250616,21.2,20250616,76.21
02575,Kirchberg/Jagst-Herboldshausen,20070522,20250616,49.1804,9.9800,20250616,16.7,20250616,10.4,20250616,21.9,20250616,75.88
02578,Kirchdorf/Poel,18650101,20250616,53.9995,11.4341,20250616,17.2,20250616,14.3,20250616,21.6,20250616,75.92
02597,"Kissingen,",19460101,20250616,50.2240,10.0792,20250616,17.9,20250616,12.4,20250616,23.1,20250616,64.54
02600,Kitzingen,19821101,20250616,49.7363,10.1781,20250616,19.1,20250616,11.3,20250616,25.5,20250616,63.42
02601,Kleiner,19360101,20250616,50.2218,8.4469,20250616,13.7,20250616,8.8,20250616,18.4,20250616,76.13
02618,Kleiner,19580101,20250616,50.8458,10.4803,20250616,13.8,20250616,11.1,20250616,18.0,20250616,75.50
02627,Schipkau-Klettwitz,19960701,20250616,51.5554,13.8845,20250616,17.1,20250616,10.2,20250616,22.1,20250616,74.96
02629,Kleve,19041001,20250616,51.7612,6.0954,20250616,18.1,20250616,9.7,20250616,25.4,20250616,72.50
02638,Klippeneck,19470101,20250616,48.1054,8.7548,20250616,13.6,20250616,10.4,20250616,18.8,20250616,78.21
02641,Klitzschen,19941001,20250616,51.5185,12.9065,20250616,17.9,20250616,11.8,20250616,23.4,20250616,67.21
02667,Köln/Bonn,19570701,20250616,50.8645,7.1575,20250616,17.9,20250616,10.2,20250616,24.2,20250616,71.38
02680,"Königshofen,",19510101,20250616,50.2840,10.4456,20250616,17.2,20250616,8.7,20250616,22.8,20250616,65.25
02700,Kösching,19610101,20250616,48.8302,11.4872,20250616,18.0,20250616,13.9,20250616,22.8,20250616,68.50
02704,Köthen,19550601,20250616,51.7511,12.0094,20250616,18.4,20250616,14.8,20250616,24.0,20250616,69.04
02708,"Kohlgrub,",19910801,20250616,47.6652,11.0805,20250616,15.0,20250616,12.2,20250616,18.4,20250616,80.92
02712,Konstanz,19590701,20250616,47.6952,9.1307,20250616,17.3,20250616,13.0,20250616,22.3,20250616,72.71
02750,Kronach,19490101,20250616,50.2524,11.3209,20250616,17.1,20250616,9.5,20250616,23.2,20250616,69.08
02773,Kümmersbruck,19740101,20250616,49.4283,11.9016,20250616,17.5,,,,,20250616,67.54
02794,Kyritz,19450501,20250616,52.9362,12.4093,20250616,18.0,20250616,12.7,20250616,22.4,20250616,68.75
02796,Laage-Kronskamp,20000601,20250616,53.9156,12.2790,20250616,16.9,,,,,20250616,76.50
02812,Lahr,19500101,20250616,48.3647,7.8280,20250616,19.1,20250616,13.8,20250616,24.1,20250616,72.92
02814,Merklingen,19490101,20250616,48.5122,9.7644,20250616,14.5,20250616,8.8,20250616,19.6,20250616,77.75
02856,Langenlipsdorf,19930601,20250616,51.9173,13.0878,20250616,17.5,20250616,11.3,20250616,22.5,20250616,67.25
02878,"Lauchstädt,",19470401,20250616,51.3909,11.8786,20250616,17.8,20250616,14.1,20250616,22.6,20250616,67.29
02886,Laupheim,19700101,20250616,48.2175,9.9097,20250616,16.1,,,,,20250616,73.79
02905,Lechfeld,19690101,20250616,48.1849,10.8507,20250616,16.5,,,,,20250616,71.83
02907,Leck,19741101,20250616,54.7903,8.9514,20250616,15.8,20250616,13.3,20250616,19.5,20250616,82.13
02925,Leinefelde,19570101,20250616,51.3932,10.3123,20250616,15.9,20250616,11.2,20250616,20.8,20250616,72.92
02928,Leipzig-Holzhausen,18631201,20250616,51.3151,12.4462,20250616,17.6,20250616,12.0,20250616,22.5,20250616,69.21
02932,Leipzig/Halle,19340101,20250616,51.4347,12.2396,20250616,17.1,20250616,13.1,20250616,22.4,20250616,72.13
02947,Lennestadt-Theten,19620401,20250616,51.1333,8.0348,20250616,16.5,20250616,10.7,20250616,21.7,20250616,75.67
02951,Lenzen/Elbe,19941001,20250616,53.1007,11.4864,20250616,17.7,20250616,13.4,20250616,22.6,20250616,68.58
02953,Lenzkirch-Ruhbühl,19610101,20250616,47.8597,8.2308,20250616,14.1,20250616,8.6,20250616,19.6,20250616,79.29
02961,Leuchtturm,19980101,20250616,54.4996,10.2737,20250616,15.9,20250616,14.1,20250616,18.8,20250616,79.13
02985,Lichtenhain-Mittelndorf,19910101,20250616,50.9383,14.2094,20250616,15.4,20250616,11.6,20250616,19.0,20250616,80.83
03015,Lindenberg,19060401,20250616,52.2085,14.1180,20250616,17.6,20250616,13.7,20250616,22.3,20250616,71.63
03028,"Lippspringe,",19510101,20250616,51.7854,8.8388,20250616,16.4,20250616,10.8,20250616,21.8,20250616,76.71
03031,Lippstadt-Bökenförde,19801201,20250616,51.6336,8.3945,20250616,17.8,20250616,11.8,20250616,22.9,20250616,73.46
03032,List,19370101,20250616,55.0110,8.4125,20250616,15.0,20250616,13.6,20250616,18.0,20250616,83.04
03034,"Lobenstein,",19520301,20250616,50.4505,11.6350,20250616,15.5,20250616,8.3,20250616,20.4,20250616,72.25
03042,Löhnberg-Obershausen,19930701,20250616,50.5617,8.2386,20250616,16.9,20250616,10.3,20250616,23.2,20250616,71.42
03083,Lübben-Blumenfelde,19911001,20250616,51.9267,13.8797,20250616,17.9,20250616,12.4,20250616,24.1,20250616,70.79
03086,Lübeck-Blankensee,19850301,20250616,53.8025,10.6989,20250616,17.1,20250616,13.5,20250616,21.8,20250616,71.75
03093,Lüchow,19541201,20250616,52.9724,11.1374,20250616,17.3,20250616,11.8,20250616,21.6,20250616,72.75
03098,Lüdenscheid,19940101,20250616,51.2452,7.6425,20250616,16.2,20250616,9.9,20250616,21.0,20250616,74.54
03126,Magdeburg,18810101,20250616,52.1029,11.5827,20250616,17.8,20250616,13.1,20250616,23.9,20250616,71.33
03137,Mainz-Lerchenberg,19480101,20250616,49.9658,8.2049,20250616,18.7,20250616,13.6,20250616,23.6,20250616,64.00
03147,Mallersdorf-Pfaffenberg-Oberlindhart,19530101,20250616,48.7548,12.2118,20250616,17.8,20250616,13.2,20250616,23.0,20250616,73.92
03155,Manderscheid-Sonnenhof,19611101,20250616,50.1015,6.8009,20250616,16.5,20250616,9.0,20250616,22.7,20250616,70.54
03158,Manschnow,19850101,20250616,52.5468,14.5453,20250612,15.7,20250612,5.3,20250612,23.3,20250612,55.58
03164,"Cölbe,",19460101,20250616,50.8492,8.7745,20250616,17.8,20250616,10.7,20250616,24.9,20250616,68.50
03166,Marienberg,19550801,20250616,50.6511,13.1469,20250616,13.3,20250616,9.2,20250616,17.2,20250616,82.54
03167,"Marienberg,",19621201,20250616,50.6621,7.9603,20250616,15.4,20250616,9.6,20250616,20.0,20250616,73.63
03181,Markt,20210801,20250616,49.4875,10.6277,20250616,17.3,20250616,9.1,20250616,22.9,20250616,65.92
03196,Marnitz,19020101,20250616,53.3221,11.9324,20250616,17.0,20250616,13.7,20250616,21.0,20250616,76.79
03204,Martinroda,19831101,20250616,50.7335,10.8815,20250616,16.6,20250616,10.0,20250616,21.3,20250616,66.83
03226,Aschersleben-Mehringen,20060801,20250616,51.7259,11.5109,20250616,17.5,20250616,11.4,20250616,23.0,20250616,70.58
03231,Meiningen,19790101,20250616,50.5611,10.3771,20250616,16.4,20250616,12.7,20250616,20.4,20250616,65.67
03234,Klipphausen-Garsebach,19560601,20250616,51.1294,13.4328,20250616,16.4,20250616,10.4,20250616,20.7,20250616,78.00
03244,Memmingen,19610101,20250616,47.9821,10.1384,20250616,15.3,20250616,11.1,20250616,20.3,20250616,81.58
03254,Meppen,19730101,20250616,52.7155,7.3176,20250616,17.2,,,,,20250616,73.83
03257,"Mergentheim,",19470101,20250616,49.4797,9.7832,20250616,18.3,20250616,11.7,20250616,23.9,20250616,67.79
03268,Meßstetten-Appental,20000601,20250616,48.1694,8.9433,20250616,13.1,20250616,6.8,20250616,18.4,20250616,79.67
03271,Metten,19410101,20250616,48.8548,12.9189,20250616,17.3,20250616,12.8,20250616,21.9,20250616,81.71
03278,Metzingen,20030101,20250616,48.5377,9.2734,20250616,17.8,20250616,12.2,20250616,23.4,20250616,70.79
03284,Michelstadt,19870101,20250616,49.6692,9.0085,20250616,18.2,20250616,12.3,20250616,24.3,20250616,69.42
03287,Michelstadt-Vielbrunn,19871001,20250616,49.7177,9.0997,20250616,16.8,20250616,12.9,20250616,21.5,20250616,72.75
03289,Schmieritz-Weltwitz,19721001,20250616,50.7281,11.7838,20250615,20.6,20250615,13.9,20250615,29.1,20250614,41.88
03307,Mittenwald-Buckelwiesen,19370101,20250616,47.4814,11.2649,20250616,13.2,20250616,11.2,20250616,15.9,20250616,85.13
03319,Röllbach,20060901,20250616,49.7644,9.2530,20250616,17.8,20250616,11.1,20250616,23.3,20250616,70.75
03321,Mönchengladbach-Hilderath,20080425,20250616,51.1313,6.3608,20250616,18.1,20250616,11.1,20250616,24.4,20250616,72.88
03348,Moringen-Lutterbeck,19900701,20250616,51.7209,9.8351,20250616,16.8,20250616,11.2,20250616,22.1,20250616,71.54
03362,Mühlacker,19980101,20250616,48.9721,8.8735,20250616,17.8,20250616,10.9,20250616,23.5,20250616,76.17
03366,Mühldorf,19530101,20250616,48.2790,12.5024,20250616,17.3,20250616,12.7,20250616,21.7,20250616,78.25
03376,Müncheberg,19370101,20250616,52.5176,14.1232,20250616,17.8,20250616,13.9,20250616,22.8,20250616,70.96
03379,München-Stadt,19540601,20250616,48.1632,11.5429,20250616,17.7,20250616,14.0,20250616,21.4,20250616,69.00
03402,Münsingen-Apfelstetten,19460101,20250616,48.3851,9.4837,20250616,14.2,20250616,9.8,20250616,19.6,20250616,82.96
03426,"Muskau,",19360518,20250616,51.5660,14.7008,20250616,16.9,20250616,9.9,20250616,21.1,20250616,78.29
03442,"Nauheim,",19470101,20250616,50.3574,8.7506,20250616,19.3,20250616,14.1,20250616,24.8,20250616,61.25
03484,Neuburg,19730101,20250616,48.7085,11.2147,20250616,18.2,,,,,20250616,67.54
03485,Neuburg/Kammel-Langenhaslach,19910601,20250616,48.3114,10.3773,20250616,16.6,20250616,12.7,20250616,22.0,20250616,79.13
03490,"Neuenahr,",19480101,20250616,50.5346,7.0853,20250616,18.6,20250616,11.8,20250616,24.3,20250616,65.92
03509,Stechlin-Menz,20041001,20250616,53.1020,13.0421,20250616,16.7,20250616,12.0,20250616,21.2,20250616,74.67
03513,Neuhaus,19530701,20250616,50.5003,11.1345,20250616,13.4,20250616,9.9,20250616,17.7,20250616,76.38
03527,Neukirchen-Hauptschwenda,19470101,20250616,50.8923,9.4050,20250616,15.7,20250616,12.0,20250616,20.8,20250616,71.04
03540,Neunkirchen-Seelscheid-Krawinkel,19920901,20250616,50.8446,7.3720,20250616,17.7,20250616,10.7,20250616,23.2,20250616,73.13
03545,Neunkirchen-Wellesweiler,19700101,20250616,49.3440,7.2297,20250616,17.8,20250616,11.7,20250616,24.9,20250616,75.21
03571,Neustadt,20080301,20250616,49.8174,11.8638,20250616,16.4,20250616,10.0,20250616,21.6,20250616,72.21
03591,Nideggen-Schmidt,19940101,20250616,50.6743,6.4240,20250616,17.5,20250616,10.1,20250616,22.9,20250616,67.17
03603,Niederstetten,20000701,20250616,49.3895,9.9666,20250616,16.7,,,,,20250616,70.96
03612,Nienburg,19470101,20250616,52.6711,9.2229,20250616,16.9,20250616,10.4,20250616,22.8,20250616,75.50
03621,Reimlingen,19470101,20250616,48.8253,10.5067,20250616,17.0,20250616,12.9,20250616,21.9,20250616,74.46
03623,Nörvenich-Niederbolheim,19690101,20250616,50.8294,6.6601,20250616,19.0,,,,,20250616,62.50
03631,Norderney,18580301,20250616,53.7123,7.1519,20250616,16.5,20250616,15.0,20250616,18.3,20250616,80.50
03639,Nordholz-Wanhöden,19740101,20250616,53.7647,8.6584,20250616,16.3,,,,,20250616,79.13
03660,Nürburg-Barweiler,19950301,20250616,50.3602,6.8697,20250616,16.3,20250616,10.3,20250616,21.7,20250616,66.75
03667,Nürnberg-Netzstall,19750101,20250616,49.4258,11.2539,20250616,17.2,20250616,10.1,20250616,23.0,20250616,69.42
03668,Nürnberg,18790101,20250616,49.5030,11.0549,20250616,18.6,20250616,11.9,20250616,23.3,20250616,61.33
03679,Kiefersfelden-Gach,19470101,20250616,47.6187,12.1665,20250616,15.8,20250616,12.9,20250616,18.8,20250616,85.46
03730,Oberstdorf,19100101,20250616,47.3984,10.2759,20250616,14.8,20250616,9.5,20250616,19.5,20250616,82.08
03734,Obersulm-Willsbach,20040701,20250616,49.1280,9.3525,20250616,18.7,20250616,12.5,20250616,24.7,20250616,72.79
03739,Oberviechtach,19481001,20250616,49.4521,12.4365,20250616,15.5,20250616,11.1,20250616,20.5,20250616,79.46
03761,Öhringen,19470101,20250616,49.2070,9.5176,20250616,18.6,20250616,13.0,20250616,23.8,20250616,70.08
03811,Oschatz,19411001,20250616,51.2960,13.0928,20250616,17.3,20250616,13.8,20250616,21.9,20250616,71.83
03821,Osterfeld,19840801,20250616,51.0872,11.9293,20250616,17.0,20250616,13.3,20250616,21.7,20250616,74.75
03836,Ostheim,19720501,20250616,50.4538,10.2211,20250616,17.3,20250616,9.1,20250616,22.9,20250616,67.17
03857,Oy-Mittelberg-Petersthal,19931001,20250616,47.6362,10.3892,20250616,13.9,20250616,9.7,20250616,18.6,20250616,83.38
03875,Parsberg/Oberpfalz-Eglwang,19500101,20250616,49.1510,11.6897,20250616,16.7,20250616,11.5,20250616,22.1,20250616,72.79
03897,Pelzerhaken,19980101,20250616,54.0893,10.8773,20250616,17.2,20250616,13.6,20250616,21.7,20250616,72.00
03904,Perl-Nennig,19650101,20250616,49.5354,6.3789,20250616,18.0,20250616,9.7,20250616,25.2,20250616,70.75
03925,Pforzheim-Ispringen,19890406,20250616,48.9329,8.6973,20250616,17.3,20250616,12.1,20250616,22.8,20250616,75.96
03927,Pfullendorf,19580101,20250616,47.9345,9.2869,20250616,14.6,20250616,9.3,20250616,20.5,20250616,82.33
03939,Pirmasens,19500101,20250616,49.1912,7.5879,20250616,18.0,20250616,13.0,20250616,23.6,20250616,67.92
03946,Plauen,18820101,20250616,50.4818,12.1300,20250616,16.1,20250616,10.6,20250616,20.6,20250616,75.17
03975,Pommelsbrunn-Mittelburg,19930901,20250616,49.4777,11.5357,20250616,16.4,20250616,12.0,20250616,21.4,20250616,73.17
03987,Potsdam,18930101,20250616,52.3812,13.0622,20250616,18.2,20250616,14.0,20250616,23.7,20250616,66.00
04024,Putbus,18530701,20250616,54.3643,13.4771,20250616,16.9,20250616,14.0,20250616,20.5,20250616,79.83
04032,Quedlinburg,19450101,20250616,51.7953,11.1320,20250616,17.5,20250616,13.2,20250616,23.4,20250616,67.75
04036,Querfurt-Mühle,19530601,20250616,51.3895,11.5412,20250616,17.5,20250616,11.1,20250616,22.6,20250616,66.63
04039,Quickborn,19741201,20250616,53.7331,9.8776,20250616,17.0,20250616,12.8,20250616,21.4,20250616,76.92
04063,Rahden-Kleinendorf,19510101,20250616,52.4461,8.5906,20250616,17.1,20250616,11.0,20250616,22.2,20250616,76.13
04094,"Weingarten,",19460101,20250616,47.8062,9.6206,20250616,17.1,20250616,13.0,20250616,22.1,20250616,75.25
04104,Regensburg,18790101,20250616,49.0425,12.1019,20250616,18.3,20250616,13.6,20250616,25.7,20250616,71.75
04127,Reichshof-Eckenhagen,19911001,20250616,50.9906,7.6958,20250616,16.4,20250616,10.1,20250616,22.1,20250616,73.29
04160,Renningen-Ihinger,19701222,20250616,48.7425,8.9240,20250616,16.5,20250616,10.8,20250616,21.3,20250616,76.08
04169,Rheinau-Memprechtshofen,19580101,20250616,48.6703,7.9939,20250616,19.4,20250616,13.9,20250616,24.9,20250616,74.46
04175,Rheinfelden,19530901,20250616,47.5590,7.7721,20250616,19.0,20250616,13.0,20250616,24.1,20250616,75.25
04177,Rheinstetten,19480101,20250616,48.9726,8.3301,20250616,19.2,20250616,13.0,20250616,25.0,20250616,70.63
04189,"Altheim,",20040801,20250616,48.1479,9.4596,20250616,15.5,20250616,10.8,20250616,21.4,20250616,81.79
04271,Rostock-Warnemünde,19470101,20250616,54.1803,12.0808,20250616,17.1,20250616,14.7,20250616,20.6,20250616,78.38
04275,Rotenburg,19460101,20250616,53.1289,9.3398,20250616,16.9,20250616,11.5,20250616,21.4,20250616,76.25
04280,Roth,19710101,20250616,49.2162,11.1035,20250616,18.5,20250616,12.9,20250616,23.6,20250616,59.71
04287,Rothenburg,19470601,20250616,49.3849,10.1732,20250616,17.2,20250616,10.3,20250616,23.0,20250616,70.88
04300,Rottweil,19570201,20250616,48.1815,8.6356,20250616,15.7,20250616,9.4,20250616,21.9,20250616,76.13
04301,"Kreuznach,",19470101,20250616,49.8502,7.8710,20250616,19.6,20250616,13.4,20250616,25.5,20250616,63.38
04323,Ruppertsecken,19690101,20250616,49.6468,7.8837,20250616,16.9,20250616,11.2,20250616,22.3,20250616,70.21
04336,Saarbrücken-Ensheim,19510101,20250616,49.2128,7.1077,20250616,17.5,20250616,12.3,20250616,23.2,20250616,71.50
04349,Sachsenheim,19871101,20250616,48.9569,9.0711,20250616,18.6,20250616,13.5,20250616,23.3,20250616,70.33
04354,Saldenburg-Entschenreuth,19850901,20250616,48.7832,13.3146,20250616,16.7,20250616,11.5,20250616,21.1,20250616,79.17
04371,"Salzuflen,",19350101,20250616,52.1042,8.7521,20250616,17.0,20250616,11.5,20250616,22.4,20250616,75.42
04377,Sandberg,19650101,20250616,50.3518,10.0034,20250616,16.4,20250616,13.6,20250616,20.9,20250616,63.42
04393,Sankt,19510101,20250616,54.3279,8.6031,20250616,16.2,20250616,14.2,20250616,19.7,20250616,79.00
04411,Schaafheim-Schlierbach,19791201,20250616,49.9195,8.9672,20250616,18.6,20250616,11.7,20250616,24.7,20250616,70.38
04445,Wernigerode-Schierke,19021201,20250616,51.7658,10.6533,20250616,14.0,20250616,8.0,20250616,18.7,20250616,71.88
04464,Schleiz,19510401,20250616,50.5679,11.8041,20250616,15.7,20250616,11.6,20250615,27.6,20250616,74.61
04466,Schleswig,19470101,20250616,54.5275,9.5487,20250616,16.5,20250616,12.7,20250616,21.6,20250616,76.13
04480,Schlüchtern-Herolz,19851001,20250616,50.3447,9.5533,20250616,17.6,20250616,10.2,20250616,23.9,20250616,69.29
04501,Schmücke,19360101,20250616,50.6545,10.7696,20250611,9.9,20250611,6.1,20250611,14.5,20250611,76.88
04508,Schneifelforsthaus,19530101,20250616,50.2968,6.4194,20250616,14.6,20250616,8.2,20250616,20.3,20250616,74.17
04548,Schönwald/Ofr.-Brunn,20070701,20250616,50.1847,12.0791,20250616,14.8,20250616,9.7,20250616,19.9,20250616,77.00
04559,Schorndorf-Knöbling,19960501,20250616,49.1644,12.6175,20250616,17.3,20250616,11.1,20250616,22.8,20250616,75.29
04592,Schwandorf,19551021,20250616,49.3278,12.0871,20250616,18.2,20250616,13.5,20250616,24.0,20250616,69.29
04605,Schwarzburg,19490705,20250616,50.6441,11.1936,20250616,16.8,20250616,10.7,20250616,22.1,20250616,72.88
04625,Schwerin,18900101,20250616,53.6424,11.3871,20250616,17.2,20250616,13.6,20250616,21.4,20250616,72.54
04642,Seehausen,19761001,20250616,52.8911,11.7297,20250616,17.8,20250616,13.5,20250616,22.3,20250616,69.67
04651,Seesen,19370101,20250616,51.9040,10.1885,20250616,16.7,20250616,11.1,20250616,22.5,20250616,70.54
04703,Sigmaringen-Laiz,19510101,20250616,48.0719,9.1943,20250616,15.6,20250616,9.8,20250616,21.5,20250616,78.71
04704,Sigmarszell-Zeisertsweiler,19880501,20250616,47.5776,9.7404,20250616,17.0,20250616,13.7,20250616,21.5,20250616,77.33
04706,Simbach/Inn,19810101,20250616,48.2718,13.0273,20250616,17.6,20250616,13.0,20250616,21.9,20250616,79.08
04709,Simmern-Wahlbach,19790401,20250616,49.9996,7.5981,20250616,16.3,20250616,9.0,20250616,23.5,20250616,69.46
04745,Soltau,19350101,20250616,52.9604,9.7930,20250616,16.5,20250616,12.5,20250616,21.1,20250616,76.50
04748,Sondershausen,18610101,20250616,51.3691,10.8800,20250616,18.1,20250616,11.5,20250616,24.3,20250616,64.38
04763,Sontra,19610101,20250616,51.0607,9.9266,20250616,16.8,20250616,10.5,20250616,22.2,20250616,72.21
04813,"Staffelstein,",20200801,20250616,50.0806,11.0467,20250616,17.0,20250616,10.1,20250616,22.9,20250616,72.13
04841,"Steinau,",19981001,20250616,53.6946,8.8735,20250616,16.7,20250616,13.2,20250616,20.8,20250616,77.67
04857,Mittelnkirchen-Hohenfelde,19901101,20250616,53.5534,9.6097,20250616,17.2,20250616,12.6,20250616,21.5,20250616,74.83
04878,Oberharz,19300101,20250616,51.6646,10.8811,20250616,14.8,20250616,8.9,20250616,20.3,20250616,71.96
04887,Stötten,19470101,20250616,48.6656,9.8648,20250616,14.9,20250616,11.9,20250616,19.7,20250616,77.63
04911,Straubing,19490501,20250616,48.8275,12.5597,20250615,22.4,20250615,15.5,20250615,31.4,20250615,66.63
04928,Stuttgart,19580101,20250616,48.8281,9.2000,20250616,18.4,20250616,14.6,20250616,22.9,20250616,69.04
04931,Stuttgart-Echterdingen,19530101,20250616,48.6883,9.2235,20250616,17.9,20250616,13.3,20250616,22.6,20250616,69.29
04978,Tann/Rhön,19860101,20250616,50.6390,10.0228,20250616,16.3,20250616,11.0,20250616,21.7,20250616,68.58
04997,Starkenberg-Tegkwitz,19941001,20250616,50.9771,12.3419,20250616,17.3,20250616,11.5,20250616,22.2,20250616,73.17
05009,Teterow,19470101,20250616,53.7610,12.5574,20250616,17.3,20250616,14.2,20250616,21.7,20250616,74.21
05014,Worpswede-Hüttenbusch,19520101,20250616,53.2758,8.9857,20250616,16.8,20250616,11.2,20250616,21.2,20250616,77.29
05017,Teuschnitz,19480101,20250616,50.4002,11.3888,20250616,15.3,20250616,11.7,20250616,19.5,20250616,68.71
05029,Tholey,19750601,20250616,49.4737,7.0385,20250616,17.8,20250616,11.9,20250616,22.7,20250616,65.29
05046,Tirschenreuth-Lodermühl,19670101,20250616,49.8576,12.3542,20250616,15.8,20250616,9.5,20250616,21.2,20250616,74.63
05064,Tönisvorst,20041201,20250616,51.2897,6.4437,20250616,18.7,20250616,11.9,20250616,25.7,20250616,71.04
05097,Tribsees,19910101,20250616,54.0654,12.7655,20250616,16.9,20250615,11.5,20250615,28.8,20250616,79.61
05099,Trier-Zewen,19070501,20250616,49.7326,6.6131,20250616,18.8,20250616,11.4,20250616,25.2,20250616,68.96
05100,Trier-Petrisberg,19370101,20250616,49.7479,6.6583,20250616,18.1,20250616,11.6,20250616,24.4,20250616,69.21
05109,Trollenhagen,20000701,20250616,53.5998,13.3039,20250616,17.1,20250616,12.6,20250616,21.4,20250616,73.79
05111,Trostberg,19450101,20250616,48.0311,12.5396,20250616,16.4,20250616,13.1,20250616,20.4,20250616,79.67
05133,Twistetal-Mühlhausen,19980601,20250616,51.3344,8.9132,20250616,17.3,20250616,11.5,20250616,21.7,20250616,67.75
05142,Ueckermünde,19360901,20250616,53.7445,14.0698,20250616,17.6,20250616,15.2,20250616,21.0,20250616,75.17
05146,Uelzen,19510101,20250616,52.9414,10.5289,20250616,16.9,20250616,11.9,20250616,21.4,20250616,75.33
05149,Gollhofen,19510301,20250616,49.5679,10.1969,20250616,18.0,20250616,10.9,20250616,23.2,20250616,68.67
05158,Ummendorf,19871201,20250616,52.1601,11.1759,20250616,16.5,20250616,13.1,20250616,21.7,20250616,74.75
05229,Villingen-Schwenningen,19470101,20250616,48.0453,8.4608,20250616,15.7,20250616,9.9,20250616,21.4,20250616,75.71
05275,Waghäusel-Kirrlach,19851001,20250616,49.2445,8.5374,20250616,20.0,20250616,14.8,20250616,26.2,20250616,67.00
05279,Wesertal-Lippoldsberg,19510101,20250616,51.6194,9.5749,20250616,17.3,20250616,12.4,20250616,22.1,20250616,70.83
05280,Wittenborn,19810401,20250616,53.9224,10.2267,20250616,17.0,20250616,13.6,20250616,22.0,20250616,73.04
05300,Waldems-Reinborn,19510101,20250616,50.2596,8.3607,20250616,16.5,20250616,10.1,20250616,22.5,20250616,71.33
05335,Waltershausen,19450101,20250616,50.8963,10.5483,20250616,17.0,20250616,12.2,20250616,22.3,20250616,67.58
05347,Warburg,19980101,20250616,51.5039,9.1118,20250616,17.1,20250616,11.4,20250616,22.1,20250616,69.58
05349,Waren,18890701,20250616,53.5196,12.6654,20250616,17.3,20250616,14.3,20250616,20.9,20250616,72.38
05371,Wasserkuppe,19230801,20250616,50.4973,9.9427,20250616,13.1,20250616,9.6,20250616,17.6,20250616,76.38
05397,Weiden,19470101,20250616,49.6662,12.1844,20250616,16.5,20250616,10.5,20250616,21.4,20250616,73.71
05404,Weihenstephan-Dürnast,19360701,20250616,48.4024,11.6946,20250616,17.2,20250616,13.5,20250616,21.6,20250616,75.54
05424,Weimar-Schöndorf,19490301,20250616,51.0177,11.3544,20250616,16.7,20250616,12.8,20250616,20.9,20250616,72.04
05426,Weinbiet,19530101,20250616,49.3758,8.1212,20250616,16.5,20250616,11.6,20250616,21.9,20250616,72.00
05433,Weiskirchen/Saar,19570101,20250616,49.5534,6.8120,20250616,17.9,20250616,11.4,20250616,25.5,20250616,65.92
05440,Weißenburg-Emetzheim,18790101,20250616,49.0115,10.9308,20250616,17.7,20250616,12.9,20250616,22.1,20250616,69.21
05480,Werl,19750101,20250616,51.5763,7.8879,20250616,17.6,20250616,10.4,20250616,23.6,20250616,74.54
05490,Wernigerode,19470101,20250616,51.8454,10.7686,20250616,16.8,20250616,11.7,20250616,22.7,20250616,65.46
05516,Fehmarn,19480101,20250616,54.5283,11.0606,20250616,16.5,20250616,14.5,20250616,19.1,20250616,82.83
05538,Wielenbach,19990201,20250616,47.8827,11.1576,20250616,16.8,20250616,13.2,20250616,21.0,20250616,75.29
05541,Wiesbaden-Auringen,19870601,20250616,50.1321,8.3169,20250616,17.7,20250616,11.9,20250616,23.4,20250616,66.79
05546,Wiesenburg,19670401,20250616,52.1206,12.4586,20250616,17.1,20250616,13.6,20250616,22.8,20250616,66.08
05562,Neubulach-Oberhaugstett,19950401,20250616,48.6516,8.6801,20250616,15.9,20250616,10.4,20250616,20.9,20250616,73.63
05629,Wittenberg,19370101,20250616,51.8891,12.6446,20250616,17.7,20250616,12.1,20250616,22.4,20250616,67.67
05640,Wittmundhafen,19690101,20250616,53.5444,7.6625,20250616,16.4,,,,,20250616,76.58
05643,Wittstock-Rote,19940301,20250616,53.1864,12.4949,20250616,17.4,20250616,13.3,20250616,22.6,20250616,73.79
05664,Wolfach,19580101,20250616,48.2953,8.2391,20250616,16.8,20250616,11.5,20250616,24.1,20250616,84.54
05688,Dachsberg-Wolpadingen,20181101,20250616,47.7004,8.1057,20250616,15.2,20250616,11.9,20250616,20.5,20250616,76.29
05692,Worms,19360101,20250616,49.6051,8.3659,20250616,19.1,20250616,13.3,20250616,24.6,20250616,67.92
05705,Würzburg,19470101,20250616,49.7704,9.9576,20250616,18.8,20250616,14.0,20250616,23.7,20250613,46.17
05715,Wunstorf,19740101,20250616,52.4626,9.4245,20250616,17.7,,,,,20250616,71.71
05717,Wuppertal-Buchenhofen,19370101,20250616,51.2256,7.1052,20250616,17.7,20250616,10.6,20250616,23.6,20250616,71.67
05731,Wutöschingen-Ofteringen,19610101,20250616,47.6783,8.3801,20250616,17.9,20250616,11.0,20250616,23.5,20250616,73.96
05745,Zehdenick,19480701,20250616,52.9664,13.3268,20250616,17.6,20250616,12.7,20250616,22.2,20250616,69.50
05750,Zeitz,19520901,20250616,51.0314,12.1495,20250616,17.3,20250616,14.3,20250616,22.2,20250616,70.92
05779,Zinnwald-Georgenfeld,19710101,20250616,50.7313,13.7516,20250616,11.7,20250615,13.1,20250615,26.4,20250611,83.83
05792,Zugspitze,19000801,20250616,47.4210,10.9848,20250616,0.9,20250616,-1.5,20250616,2.8,20250616,99.46
05797,Lichtentanne,18631203,20250616,50.6879,12.4329,20250616,16.2,20250616,11.3,20250616,20.7,20250616,77.79
05800,Zwiesel,19980101,20250616,49.0280,13.2385,20250616,15.9,20250616,12.2,20250616,19.7,20250616,76.96
05822,Bassum,19751001,20250616,52.8630,8.6989,20250616,16.9,20250616,11.6,20250616,21.3,20250616,78.46
05825,Berge,19530701,20250616,52.6198,12.7867,20250616,17.8,20250616,14.1,20250616,22.6,20250616,70.79
05839,Emden,19970701,20250616,53.3881,7.2287,20250616,16.4,20250616,10.8,20250616,20.6,20250616,78.58
05856,Fürstenzell,19961231,20250616,48.5451,13.3532,20250616,16.9,20250616,13.4,20250616,20.7,20250616,78.75
05871,Hahn,19981101,20250616,49.9463,7.2645,20250616,16.3,20250616,10.9,20250616,21.6,20250616,69.54
05906,Mannheim,19360101,20250616,49.5063,8.5584,20250616,19.1,20250616,13.6,20250616,24.8,20250616,70.04
05930,Schönhagen,19810801,20250616,54.6410,10.0238,20250616,16.4,20250616,12.4,20250616,21.2,20250616,79.38
06093,Wendisch,19980201,20250616,53.2139,10.4704,20250616,16.8,20250616,12.1,20250616,21.3,20250616,78.13
06105,Ostenfeld,19980601,20250616,54.3194,9.8051,20250616,16.5,20250616,13.6,20250616,20.5,20250616,77.46
06109,Grambow-Schwennenz,19981001,20250616,53.3837,14.3728,20250616,17.5,20250616,13.0,20250616,22.0,20250616,73.13
06129,Sohland/Spree,19990501,20250616,51.0594,14.4266,20250616,15.2,20250616,7.9,20250616,19.1,20250616,82.96
06157,Wangerland-Hooksiel,19990201,20250616,53.6411,8.0809,20250616,16.6,20250616,12.8,20250616,20.0,20250616,78.17
06158,Weidenbach-Weiherschneidbach,19990701,20250616,49.2249,10.6085,20250612,18.3,20250612,8.2,20250612,25.8,20250612,56.13
06159,Dörpen,19590301,20250616,52.9542,7.3197,20250616,16.7,20250616,11.0,20250616,21.6,20250616,78.71
06163,Dörnick,19991004,20250616,54.1654,10.3519,20250616,16.4,20250616,13.1,20250616,20.5,20250616,76.96
06170,Coschen,20000201,20250616,52.0192,14.7254,20250616,18.7,20250616,11.5,20250616,23.2,20250616,70.96
06197,Lügde-Paenbruch,20001011,20250616,51.8664,9.2710,20250616,16.2,20250616,11.2,20250616,20.7,20250616,76.17
06199,Steinhagen-Negast,20000801,20250616,54.2484,13.0419,20250616,16.9,20250616,14.3,20250616,20.5,20250616,80.08
06217,Saarbrücken-Burbach,20010401,20250616,49.2406,6.9351,20250616,18.7,20250616,12.6,20250616,25.5,20250616,69.29
06258,Friedrichshafen-Unterraderach,20030101,20250616,47.6845,9.4409,20250616,17.4,20250616,13.6,20250616,22.3,20250616,72.58
06259,Großerlach-Mannenweiler,20040601,20250616,49.0210,9.6033,20250616,16.5,20250616,13.2,20250616,21.7,20250616,73.33
06260,Ingelfingen-Stachenhausen,20021201,20250616,49.3328,9.7040,20250616,17.3,20250616,11.6,20250616,23.0,20250616,74.13
06262,Schwäbisch,20021101,20250616,48.7695,9.8737,20250616,16.8,20250616,10.5,20250616,23.0,20250616,74.38
06263,Singen,20040701,20250616,47.7738,8.8219,20250616,17.4,20250616,11.6,20250616,22.4,20250616,71.21
06264,Brilon-Thülen,20040601,20250616,51.4140,8.6500,20250616,15.5,20250616,11.2,20250616,19.7,20250616,76.25
06265,Wusterwitz,20040501,20250616,52.3613,12.3867,20250616,18.2,20250616,12.1,20250616,23.6,20250616,63.96
06266,Huy-Pabstorf,20040901,20250616,52.0304,10.9626,20250616,17.5,20250616,13.6,20250616,24.2,20250616,71.08
06272,"Salzungen,",20041001,20250616,50.8426,10.2518,20250616,16.9,20250616,10.3,20250616,22.2,20250616,70.88
06273,Demker,20040601,20250616,52.5075,11.8551,20250616,18.2,20250616,13.1,20250616,23.2,20250616,64.88
06275,Notzingen,20040701,20250616,48.6705,9.4627,20250616,17.8,20250616,10.5,20250616,24.2,20250616,71.75
06305,Mühlhausen/Thüringen-Görmar,20041201,20250616,51.2061,10.4978,20250616,17.5,20250616,10.6,20250616,22.4,20250616,68.67
06310,Karlshagen,20040801,20250616,54.1049,13.8239,20250616,17.5,20250616,14.6,20250616,21.0,20250616,76.29
06314,Nossen,19490201,20250616,51.0507,13.3003,20250616,16.0,20250616,13.5,20250616,20.2,20250616,75.42
06336,Lohr/Main-Halsbach,20051101,20250616,50.0132,9.6540,20250616,17.7,20250616,11.0,20250616,22.8,20250616,69.67
06337,Lüdinghausen-Brochtrup,20040801,20250616,51.7663,7.5194,20250616,17.5,20250616,10.3,20250616,23.3,20250616,78.17
06344,Runkel-Ennerich,20041201,20250616,50.3940,8.1423,20250616,18.0,20250616,10.6,20250616,23.8,20250616,71.79
06346,Maisach-Galgen,20050201,20250616,48.2070,11.2035,20250616,16.8,20250616,13.6,20250616,21.4,20250616,76.50
06347,Schonungen-Mainberg,20050301,20250616,50.0579,10.2972,20250616,17.8,20250616,11.7,20250616,24.2,20250616,66.58
07075,Elsendorf-Horneck,20050201,20250616,48.7020,11.8493,20250616,17.8,20250616,13.9,20250616,22.6,20250616,74.29
07105,Siegsdorf-Höll,20050601,20250616,47.8350,12.6548,20250616,14.8,20250616,12.6,20250616,17.3,20250616,82.67
07106,Bielefeld-Deppendorf,20060901,20250616,52.0714,8.4565,20250616,16.5,20250616,10.4,20250616,22.4,20250616,79.04
07187,Freudenberg/Main-Boxtal,20041201,20250616,49.7636,9.4063,20250616,18.0,20250616,12.2,20250616,23.8,20250616,70.38
07298,Hattstedt,20050701,20250616,54.5268,9.0425,20250616,16.4,20250616,13.9,20250616,20.7,20250616,76.88
07319,Donauwörth-Osterweiler,20050301,20250616,48.7374,10.7393,20250616,17.0,20250616,12.4,20250616,22.0,20250616,72.21
07321,Olbersleben,20050901,20250616,51.1507,11.3321,20250616,17.3,20250616,10.5,20250616,22.5,20250616,72.25
07329,Treuen,20051101,20250616,50.5467,12.2863,20250616,16.0,20250616,10.9,20250616,20.4,20250616,76.83
07330,Arnsberg-Neheim,20051001,20250616,51.4633,7.9780,20250616,16.1,20250616,8.7,20250616,22.2,20250616,77.25
07331,Hermaringen-Allewind,20050901,20250616,48.6099,10.2674,20250616,16.5,20250616,11.9,20250616,21.9,20250616,76.21
07341,Offenbach-Wetterpark,20050715,20250616,50.0900,8.7862,20250616,18.7,20250616,12.8,20250616,24.3,20250616,68.04
07343,Deutschneudorf-Brüderwiese,20060401,20250616,50.6200,13.4817,20250616,13.1,20250616,9.3,20250616,17.1,20250616,84.50
07351,Feldberg/Mecklenburg,20050908,20250616,53.3176,13.4175,20250616,17.0,20250616,12.4,20250616,21.1,20250616,72.13
07364,Jeßnitz,20070101,20250616,51.6818,12.3053,20250616,17.6,20250616,12.2,20250616,23.3,20250616,68.92
07367,Alfeld,20071201,20250616,51.9643,9.8072,20250616,16.8,20250616,11.3,20250616,21.2,20250616,71.88
07368,Eisenach,20071101,20250616,51.0007,10.3621,20250616,16.9,20250616,12.2,20250616,21.4,20250616,70.38
07369,Feuchtwangen-Heilbronn,20071101,20250616,49.1623,10.3661,20250616,16.3,20250616,9.1,20250616,21.7,20250616,71.38
07370,Waldmünchen,20061211,20250616,49.3910,12.6838,20250616,15.8,20250616,10.3,20250616,21.0,20250616,80.54
07373,Borkum-Flugplatz,20060301,20250616,53.5984,6.7024,20250616,16.5,20250616,12.2,20250616,19.0,20250616,80.25
07374,Ahaus,20060301,20250616,52.0813,6.9409,20250616,17.5,20250616,10.2,20250616,23.3,20250616,74.33
07389,Heckelberg,20061201,20250616,52.7461,13.8427,20250616,17.6,20250616,13.3,20250616,23.3,20250616,69.33
07393,Hoyerswerda,20100101,20250616,51.4492,14.2533,20250616,17.5,20250616,11.5,20250616,22.2,20250616,74.71
07394,Wunsiedel-Schönbrunn,20060601,20250616,50.0315,11.9745,20250616,15.1,20250616,11.0,20250616,19.4,20250616,73.75
07395,Gottfrieding,20071201,20250616,48.6595,12.5388,20250616,18.0,20250616,14.3,20250616,22.6,20250616,75.29
07396,Hoherodskopf/Vogelsberg,20080501,20250616,50.5084,9.2246,20250616,14.2,20250616,10.3,20250616,19.1,20250616,74.83
07403,Leutkirch-Herlazhofen,20070401,20250616,47.7955,10.0325,20250616,15.1,20250616,9.6,20250616,19.6,20250616,81.42
07410,Neu-Ulrichstein,20110201,20250616,50.7513,9.0224,20250616,16.9,20250616,11.9,20250616,22.4,20250616,68.96
07412,Neuhütten/Spessart,20061001,20250616,50.0083,9.4238,20250616,17.0,20250616,11.0,20250616,22.7,20250616,72.29
07419,Langenwetzendorf-Göttendorf,20061201,20250616,50.6610,12.0756,20250616,16.2,20250616,10.7,20250616,21.1,20250616,77.67
07420,Naumburg/Saale-Kreipitzsch,20070401,20250616,51.1045,11.7113,20250616,17.2,20250616,13.2,20250616,21.4,20250616,72.25
07424,Piding,20061201,20250616,47.7724,12.9073,20250616,16.9,20250616,12.7,20250616,20.1,20250616,78.38
07427,Padenstedt,20070901,20250616,54.0188,9.9255,20250616,16.7,20250616,14.0,20250616,20.6,20250616,75.00
07428,Veilsdorf,20070501,20250616,50.4167,10.8156,20250616,17.0,20250616,9.8,20250616,22.5,20250616,66.54
07431,Oberhaching-Laufzorn,20071101,20250616,48.0130,11.5524,20250616,16.4,20250616,12.4,20250616,20.8,20250616,76.50
07432,Wittingen-Vorhop,20070501,20250616,52.6423,10.6628,20250616,17.1,20250616,10.4,20250616,22.3,20250616,72.17
13670,Duisburg-Baerl,20070601,20250616,51.5088,6.7018,20250616,18.4,20250616,11.0,20250616,25.0,20250616,74.13
13674,Waibstadt,20070801,20250616,49.2943,8.9053,20250616,18.6,20250616,13.0,20250616,23.6,20250616,72.38
13675,Hameln-Hastenbeck,20071101,20250616,52.0818,9.4077,20250616,17.3,20250616,11.4,20250616,22.6,20250616,74.04
13696,Waltrop-Abdinghof,20071201,20250616,51.5966,7.4048,20250616,17.8,20250616,10.3,20250616,23.9,20250616,72.96
13700,Gevelsberg-Oberbröking,20080501,20250616,51.3329,7.3412,20250616,17.3,20250616,10.7,20250616,22.6,20250616,71.71
13710,Landshut-Reithof,20080401,20250616,48.5734,12.2576,20250616,17.7,20250616,13.5,20250616,22.6,20250616,72.00
13711,Krölpa-Rockendorf,20071201,20250616,50.6820,11.5150,20250616,17.2,20250616,11.6,20250616,22.2,20250616,71.17
13713,Meinerzhagen-Redlendorf,20071101,20250616,51.0899,7.6289,20250616,15.9,20250616,9.1,20250616,21.5,20250616,77.17
13777,Helmstedt-Emmerstedt,20080601,20250616,52.2467,10.9592,20250616,16.8,20250616,10.1,20250616,22.2,20250616,72.79
13965,Balingen-Bronnhaupten,20081201,20250616,48.2639,8.8134,20250616,15.6,20250616,10.8,20250616,20.8,20250616,78.29
15000,Aachen-Orsbach,20110401,20250616,50.7983,6.0244,20250616,18.0,20250616,10.9,20250616,23.4,20250616,68.92
15207,Schauenburg-Elgershausen,20131101,20250616,51.2835,9.3590,20250616,16.4,20250616,12.3,20250616,20.9,20250616,70.08
15444,Ulm-Mähringen,20140901,20250616,48.4418,9.9216,20250616,15.3,20250616,10.5,20250616,20.7,20250616,78.04
15555,Kaufbeuren-Oberbeuren,20160501,20250616,47.8761,10.5849,20250616,14.3,20250616,11.6,20250616,17.6,20250616,81.21
15813,Lingen-Baccum,20220301,20250616,52.5126,7.4131,20250616,17.8,20250616,11.5,20250616,23.1,20250616,71.13
19171,Hasenkrug-Hardebek,20200901,20250616,54.0039,9.8555,20250616,17.0,20250616,14.0,20250616,21.2,20250616,74.25
19172,Wacken,20200901,20250616,54.0246,9.3880,20250616,16.5,20250616,13.7,20250616,20.6,20250616,76.42
19207,Gülzow-Prüzen,20230401,20250616,53.8178,12.0645,20250616,17.1,20250616,13.9,20250616,21.1,20250616,75.50
19856,Schönau,20240801,20250616,47.6134,12.9819,20250616,15.8,20250616,13.2,20250616,17.4,20250616,81.71
20098,Seebach,20250401,20250616,48.5651,8.2284,20250616,12.9,20250616,10.1,20250616,17.1,20250616,79.88
