station_id,station_name,data_date,lat,lon,humidity,max_temperature,mean_temperature,min_temperature
00044,Großenkneten,18.06.2025 13:20,52.9336,8.2370,65.5,25.2,22.7,12.1
00073,Aldersbach-Kramersepp,18.06.2025 13:20,48.6183,13.0620,44.6,26.5,26.0,11.8
00078,Alfhausen,18.06.2025 13:20,52.4853,7.9125,44.2,26.4,25.1,11.5
00091,Alsfeld-Eifa,18.06.2025 13:20,50.7446,9.3450,40.9,26.2,26.2,10.8
00096,Neuruppin-Alt,18.06.2025 13:20,52.9437,12.8518,48.9,25.1,23.8,12.7
00102,Leuchtturm,18.06.2025 13:20,53.8633,8.1275,74.3,18.4,17.5,14.9
00131,Geringswalde-Altgeringswalde,18.06.2025 13:20,51.0881,12.9326,45.9,25.9,25.9,13.7
00142,Altomünster-Maisbrunn,18.06.2025 13:20,48.4060,11.3117,41.6,25.8,25.2,10.9
00150,Alzey,18.06.2025 13:20,49.7273,8.1164,38.6,27.8,27.5,12.9
00151,Amberg-Unterammersricht,18.06.2025 13:20,49.4691,11.8546,34.4,28.2,28.2,10.9
00154,Amerang-Pfaffing,18.06.2025 13:20,48.0197,12.2925,41.2,26.0,25.6,9.8
00161,Andernach,18.06.2025 13:20,50.4237,7.4202,43.3,27.4,27.1,12.8
00164,Angermünde,18.06.2025 13:20,53.0316,13.9908,47.2,25.9,25.4,14.3
00167,Anklam,18.06.2025 13:20,53.8409,13.6854,54.3,22.1,21.6,11.2
00183,Arkona,18.06.2025 13:30,54.6791,13.4344,71.6,19.4,18.7,14.8
00191,Arnstein-Müdesheim,18.06.2025 13:20,49.9694,9.9114,37.5,28.0,28.0,10.5
00198,Artern,18.06.2025 13:20,51.3744,11.2920,36.2,27.7,27.6,13.7
00217,Attenkam,18.06.2025 13:20,47.8774,11.3643,38.0,25.7,25.7,10.5
00222,Aue,18.06.2025 13:20,50.5908,12.7139,45.6,25.5,25.0,11.5
00232,Augsburg,18.06.2025 13:20,48.4253,10.9417,45.6,25.8,25.8,9.0
00257,Baden-Baden-Geroldsau,18.06.2025 13:20,48.7270,8.2457,47.1,28.2,28.2,13.3
00259,Müllheim,18.06.2025 13:20,47.8064,7.6387,41.8,28.2,27.8,12.4
00282,Bamberg,18.06.2025 13:20,49.8743,10.9206,36.9,27.7,27.3,10.1
00294,Barsinghausen-Hohenbostel,18.06.2025 13:20,52.3199,9.4300,44.0,26.2,26.0,15.7
00298,Barth,18.06.2025 13:30,54.3405,12.7108,63.6,20.2,20.1,14.9
00303,Baruth,18.06.2025 13:20,52.0613,13.4997,27.8,28.8,28.7,12.3
00314,"Kubschütz,",18.06.2025 13:20,51.1604,14.5042,42.8,27.0,25.6,16.3
00320,Heinersreuth-Vollhof,18.06.2025 13:20,49.9666,11.5198,37.5,28.0,27.1,9.0
00330,Oberzent-Beerfelden,18.06.2025 13:20,49.5617,8.9673,42.7,25.9,25.1,15.2
00342,Belm,18.06.2025 13:20,52.3170,8.1694,44.4,26.2,26.2,12.9
00377,"Bergzabern,",18.06.2025 13:20,49.1070,7.9967,40.7,27.7,27.7,15.5
00379,"Berka,",18.06.2025 13:20,50.9075,11.2665,44.1,26.0,25.9,11.3
00390,"Berleburg,",18.06.2025 13:20,50.9837,8.3683,50.1,23.7,22.9,11.4
00400,Berlin-Buch,18.06.2025 13:20,52.6310,13.5021,43.1,26.3,26.1,13.7
00420,Berlin-Marzahn,18.06.2025 13:20,52.5447,13.5598,43.2,27.1,25.8,16.5
00427,Berlin,18.06.2025 13:30,52.3807,13.5306,38.5,27.2,26.6,15.4
00433,Berlin-Tempelhof,18.06.2025 13:30,52.4676,13.4020,42.9,27.8,25.7,14.6
00445,Bernburg/Saale,18.06.2025 13:20,51.8218,11.7110,29.5,27.9,27.2,15.5
00460,Berus,18.06.2025 13:20,49.2641,6.6868,41.4,26.7,25.6,16.8
00535,Blankenrath,18.06.2025 13:20,50.0372,7.3079,45.3,25.4,24.0,12.0
00555,Bochum,18.06.2025 13:20,51.5026,7.2289,40.1,26.7,26.7,15.1
00591,Boizenburg,18.06.2025 13:20,53.3911,10.6878,54.8,23.6,23.6,13.8
00596,Boltenhagen,18.06.2025 13:20,54.0027,11.1908,57.9,23.3,22.3,12.8
00603,Königswinter-Heiderhof,18.06.2025 13:20,50.7293,7.2040,45.8,25.8,25.8,13.8
00617,Borken,18.06.2025 13:20,51.8730,6.8863,43.4,27.0,26.8,12.1
00656,Braunlage,18.06.2025 13:20,51.7234,10.6021,51.2,22.8,22.4,13.0
00662,Braunschweig,18.06.2025 13:20,52.2915,10.4464,42.2,25.8,25.4,15.2
00691,Bremen,18.06.2025 13:20,53.0451,8.7981,57.7,24.5,23.2,11.8
00701,Bremerhaven,18.06.2025 13:20,53.5332,8.5761,71.7,20.5,19.5,15.1
00704,Bremervörde,18.06.2025 13:20,53.4451,9.1390,59.1,23.7,23.2,12.1
00722,Brocken,18.06.2025 13:20,51.7986,10.6183,54.0,18.3,18.0,12.4
00755,"Buchen,",18.06.2025 13:20,49.5182,9.3213,35.8,27.4,27.4,9.9
00757,Buchenbach,18.06.2025 13:20,47.9625,7.9983,53.2,26.0,26.0,13.3
00760,Rosengarten-Klecken,18.06.2025 13:20,53.3629,9.9435,58.0,23.7,22.5,12.8
00817,Burgwald-Bottendorf,18.06.2025 13:20,51.0306,8.8146,36.1,27.0,26.9,10.7
00840,Carlsfeld,18.06.2025 13:20,50.4313,12.6114,62.4,21.2,21.0,10.2
00853,Chemnitz,18.06.2025 08:00,50.7913,12.8720,64.1,21.8,21.8,14.0
00856,Chieming,18.06.2025 13:20,47.8843,12.5404,48.1,25.2,25.2,10.6
00860,Algermissen-Groß,18.06.2025 13:20,52.2731,10.0163,41.9,26.1,26.0,14.8
00867,Lautertal-Oberlauter,18.06.2025 13:20,50.3066,10.9679,37.9,27.4,27.1,11.5
00880,Cottbus,18.06.2025 13:20,51.7759,14.3168,30.9,29.2,28.7,14.4
00891,Cuxhaven,18.06.2025 13:20,53.8713,8.7060,66.4,21.2,20.2,15.2
00896,Dachwig,18.06.2025 13:20,51.0778,10.8619,43.2,27.5,27.0,13.6
00917,Darmstadt,18.06.2025 13:20,49.8809,8.6779,34.5,28.3,27.7,11.7
00953,Deuselbach,18.06.2025 13:20,49.7619,7.0542,42.4,25.2,25.1,13.9
00963,Diepholz,18.06.2025 13:20,52.5881,8.3424,44.5,26.5,25.9,13.3
00983,Dillingen/Donau-Fristingen,18.06.2025 13:20,48.5562,10.5600,40.6,26.0,25.5,10.5
00991,Dippoldiswalde-Reinberg,18.06.2025 13:20,50.9116,13.7087,47.9,25.6,25.6,9.5
01001,Doberlug-Kirchhain,18.06.2025 13:20,51.6451,13.5747,34.0,28.0,27.7,13.9
01048,Dresden-Klotzsche,18.06.2025 13:20,51.1278,13.7543,38.7,26.5,26.0,13.5
01050,Dresden-Hosterwitz,18.06.2025 13:20,51.0221,13.8470,39.0,27.4,27.1,12.4
01052,Möckern-Drewitz,18.06.2025 13:20,52.2174,12.1641,37.2,27.4,27.2,14.1
01072,"Dürkheim,",18.06.2025 13:20,49.4719,8.1929,35.2,28.8,28.8,14.0
01078,Düsseldorf,18.06.2025 13:20,51.2960,6.7686,40.7,27.0,26.9,13.2
01103,Ebersberg-Halbing,18.06.2025 13:20,48.1003,11.9872,40.7,25.9,25.9,12.2
01107,Ebrach,18.06.2025 13:20,49.8520,10.4991,39.9,26.8,26.8,10.7
01161,Eichstätt-Landershofen,18.06.2025 13:20,48.8778,11.2349,40.3,27.5,27.5,9.4
01197,Ellwangen-Rindelbach,18.06.2025 13:20,48.9895,10.1312,36.7,27.8,26.8,10.3
01200,Elpersbüttel,18.06.2025 13:20,54.0691,9.0105,70.3,20.2,19.9,14.0
01207,"Elster,",18.06.2025 13:20,50.2705,12.2742,54.6,25.1,23.9,10.9
01214,Elzach-Fisnacht,18.06.2025 13:20,48.2012,8.1088,43.9,27.1,26.5,12.0
01224,Emmendingen-Mundingen,18.06.2025 13:20,48.1378,7.8351,39.5,27.3,27.3,12.1
01246,Ennigerloh-Ostenfelde,18.06.2025 13:20,51.8418,8.0607,44.9,25.7,25.7,13.6
01255,Eppingen-Elsenz,18.06.2025 13:20,49.1661,8.8483,42.6,27.5,27.5,12.6
01262,München-Flughafen,18.06.2025 13:20,48.3477,11.8134,42.3,25.5,25.3,8.8
01266,Erfde,18.06.2025 13:20,54.2992,9.3162,66.6,20.8,20.8,12.5
01270,Erfurt-Weimar,18.06.2025 13:20,50.9829,10.9608,41.2,25.7,25.7,12.7
01279,Möhrendorf-Kleinseebach,18.06.2025 13:20,49.6497,11.0075,32.1,29.0,28.6,11.6
01297,Eschwege,18.06.2025 13:20,51.2041,10.0138,42.9,26.8,25.8,13.0
01300,Eslohe,18.06.2025 13:20,51.2540,8.1565,46.1,25.5,24.1,9.7
01303,Essen-Bredeney,18.06.2025 13:20,51.4041,6.9677,47.4,25.6,25.6,15.6
01327,Weilerswist-Lommersum,18.06.2025 13:20,50.7119,6.7905,39.6,26.4,26.4,14.4
01332,"Falkenberg,Kr.Rottal-Inn",18.06.2025 13:20,48.4832,12.7241,43.2,25.9,25.5,12.1
01346,Feldberg/Schwarzwald,18.06.2025 13:20,47.8748,8.0038,74.3,16.6,16.6,11.8
01357,Fichtelberg/Oberfranken-Hüttstadl,18.06.2025 13:20,49.9807,11.8376,48.6,25.0,24.2,10.4
01358,Fichtelberg,18.06.2025 13:20,50.4283,12.9536,60.7,19.6,19.3,11.8
01411,Birx/Rhön,18.06.2025 13:20,50.5309,10.0479,42.8,23.4,22.7,12.2
01420,Frankfurt/Main,18.06.2025 13:20,50.0259,8.5213,37.3,28.2,27.5,13.7
01424,Frankfurt/Main-Westend,18.06.2025 13:20,50.1269,8.6694,39.0,28.2,28.2,15.2
01443,Freiburg,18.06.2025 13:20,48.0232,7.8343,45.9,27.4,27.4,12.8
01451,Freiburg/Elbe,18.06.2025 10:20,53.8277,9.2493,66.7,20.6,20.6,13.4
01468,Freudenstadt,18.06.2025 13:20,48.4538,8.4090,45.5,24.5,23.9,10.5
01503,Friesoythe-Altenoythe,18.06.2025 13:20,53.0643,7.9020,64.2,24.7,22.3,11.9
01526,Fulda-Horas,18.06.2025 13:20,50.5668,9.6532,38.8,26.5,25.8,10.5
01544,Gardelegen,18.06.2025 13:20,52.5129,11.3942,45.4,26.6,26.2,10.8
01550,Garmisch-Partenkirchen,18.06.2025 13:20,47.4830,11.0621,47.1,25.3,25.3,9.4
01580,Geisenheim,18.06.2025 13:20,49.9859,7.9548,35.9,29.1,27.9,14.6
01587,Gelbelsee,18.06.2025 13:20,48.9481,11.4289,36.6,26.3,26.3,12.9
01590,Geldern-Walbeck,18.06.2025 13:20,51.4942,6.2463,42.5,27.0,26.5,14.7
01602,Ohlsbach,18.06.2025 13:20,48.4330,7.9930,43.1,28.6,28.3,14.2
01605,Genthin,18.06.2025 13:20,52.3875,12.1602,37.6,27.8,27.8,12.2
01612,Gera-Leumnitz,18.06.2025 13:20,50.8812,12.1289,41.1,25.9,25.9,13.4
01639,Gießen/Wettenberg,18.06.2025 13:20,50.6017,8.6439,39.7,26.5,26.2,11.6
01645,Gilserberg-Moischeid,18.06.2025 13:20,50.9656,9.0500,47.2,26.5,24.4,10.1
01684,Görlitz,18.06.2025 13:20,51.1621,14.9506,45.4,25.9,25.8,13.3
01691,Göttingen,18.06.2025 13:20,51.5002,9.9507,43.1,26.4,26.1,12.1
01694,Goldberg,18.06.2025 13:20,53.6058,12.1034,55.3,22.9,22.3,13.5
01721,Gräfenberg-Kasberg,18.06.2025 13:20,49.6640,11.2239,42.3,26.5,25.8,12.9
01735,Grainet-Rehberg,18.06.2025 13:20,48.7894,13.6290,52.3,24.0,23.9,10.7
01736,Grambek,18.06.2025 13:20,53.5731,10.6797,54.1,23.6,23.0,12.0
01757,Greifswald,18.06.2025 13:30,54.0967,13.4056,59.7,21.4,21.4,15.6
01759,Greifswalder,18.06.2025 13:30,54.2437,13.9104,75.0,19.0,18.9,16.4
01766,Münster/Osnabrück,18.06.2025 13:20,52.1344,7.6969,41.0,27.3,27.3,12.8
01792,Groß,18.06.2025 13:20,52.7553,7.4815,52.0,27.2,24.7,11.3
01803,Groß,18.06.2025 13:20,54.0714,12.3238,70.4,20.8,20.8,12.8
01832,Großer,18.06.2025 13:20,49.1129,13.1338,55.4,19.3,18.8,10.7
01863,Gründau-Breitenborn,18.06.2025 13:20,50.2667,9.1854,43.6,26.7,26.3,13.2
01869,Grünow,18.06.2025 13:20,53.3154,13.9339,55.2,23.3,22.7,13.3
01886,Günzburg,18.06.2025 13:20,48.4878,10.2608,42.1,25.2,25.1,9.5
01964,Olsdorf,18.06.2025 13:20,49.9445,6.3821,45.4,27.0,26.7,12.8
01975,Hamburg-Fuhlsbüttel,18.06.2025 13:20,53.6332,9.9881,61.6,22.8,22.8,12.7
01981,Hamburg-Neuwiedenthal,18.06.2025 13:20,53.4776,9.8957,58.7,23.5,22.7,14.4
02014,Hannover,18.06.2025 13:20,52.4644,9.6779,44.1,25.8,25.7,13.1
02023,Harburg,18.06.2025 13:20,48.7918,10.7062,37.6,25.9,25.4,13.6
02039,"Harzburg,",18.06.2025 13:20,51.9002,10.5699,40.0,26.5,26.5,16.5
02044,Harzgerode,18.06.2025 13:20,51.6520,11.1366,41.4,25.1,24.8,11.8
02074,Hechingen,18.06.2025 13:20,48.3752,8.9800,48.3,25.5,25.4,10.6
02115,Helgoland,18.06.2025 13:20,54.1750,7.8920,78.2,18.3,18.1,14.9
02171,"Hersfeld,",18.06.2025 13:20,50.8520,9.7377,38.9,27.3,26.7,12.2
02174,Herzberg,18.06.2025 13:20,51.6255,10.3695,47.3,25.6,25.6,12.5
02201,Hiddensee-Vitte,18.06.2025 13:20,54.5750,13.1044,73.0,21.2,21.1,15.6
02211,Hilgenroth,18.06.2025 13:20,50.7370,7.6525,45.4,25.1,24.4,12.2
02252,Bertsdorf-Hörnitz,18.06.2025 13:20,50.8992,14.7456,44.6,26.7,25.7,10.0
02261,Hof,18.06.2025 13:20,50.3123,11.8760,45.7,25.1,24.5,11.6
02290,Hohenpeißenberg,18.06.2025 13:20,47.8009,11.0108,45.8,23.2,23.2,13.7
02306,Hohwacht,18.06.2025 13:20,54.3194,10.6732,57.1,22.5,21.8,13.1
02319,Holzkirchen,18.06.2025 13:20,47.8823,11.6961,32.3,26.9,26.7,10.3
02323,"Bevern,",18.06.2025 13:20,51.8529,9.4953,44.1,26.9,26.9,12.5
02362,Hümmerich,18.06.2025 13:20,50.5651,7.4843,45.9,24.6,23.7,14.1
02429,Itzehoe,18.06.2025 13:20,53.9897,9.5697,66.1,21.7,20.8,11.6
02444,Jena,18.06.2025 13:20,50.9251,11.5830,34.9,28.4,28.2,14.1
02480,Kahl/Main,18.06.2025 13:20,50.0643,8.9930,40.0,28.1,27.5,13.5
02483,Kahler,18.06.2025 13:20,51.1803,8.4891,53.6,21.2,20.5,15.0
02485,Kaisersbach-Cronhütte,18.06.2025 13:20,48.9170,9.6871,45.0,25.5,25.3,9.3
02486,Kaiserslautern,18.06.2025 13:20,49.4262,7.7557,36.5,28.6,26.4,12.5
02497,Kall-Sistig,18.06.2025 13:20,50.5014,6.5264,53.8,23.7,23.7,12.1
02559,Kempten,18.06.2025 13:20,47.7233,10.3348,46.6,25.7,25.6,9.4
02564,Kiel-Holtenau,18.06.2025 13:20,54.3776,10.1424,59.7,21.8,21.4,13.4
02575,Kirchberg/Jagst-Herboldshausen,18.06.2025 13:20,49.1804,9.9800,44.1,25.9,25.9,10.5
02578,Kirchdorf/Poel,18.06.2025 13:20,53.9995,11.4341,55.2,23.1,22.9,14.2
02597,"Kissingen,",18.06.2025 13:20,50.2240,10.0792,37.5,27.9,26.3,11.9
02600,Kitzingen,18.06.2025 13:20,49.7363,10.1781,34.1,29.4,28.3,12.9
02601,Kleiner,18.06.2025 13:20,50.2218,8.4469,50.0,22.2,22.2,15.1
02618,Kleiner,18.06.2025 13:20,50.8458,10.4803,52.0,22.4,21.7,15.0
02627,Schipkau-Klettwitz,18.06.2025 13:20,51.5554,13.8845,34.1,27.9,27.9,13.1
02629,Kleve,18.06.2025 13:20,51.7612,6.0954,46.6,28.1,26.2,12.3
02638,Klippeneck,18.06.2025 13:20,48.1054,8.7548,43.3,24.3,24.3,12.8
02641,Klitzschen,18.06.2025 13:20,51.5185,12.9065,36.7,28.4,27.9,13.1
02667,Köln/Bonn,18.06.2025 13:20,50.8645,7.1575,37.2,26.7,26.5,12.4
02680,"Königshofen,",18.06.2025 13:20,50.2840,10.4456,39.1,27.1,26.8,8.7
02700,Kösching,18.06.2025 13:20,48.8302,11.4872,44.3,26.6,26.4,11.7
02704,Köthen,18.06.2025 13:20,51.7511,12.0094,33.7,28.5,28.3,16.1
02708,"Kohlgrub,",18.06.2025 13:20,47.6652,11.0805,47.1,25.3,25.1,9.7
02712,Konstanz,18.06.2025 13:20,47.6952,9.1307,40.9,27.3,26.9,11.8
02750,Kronach,18.06.2025 13:20,50.2524,11.3209,33.6,27.6,27.3,10.0
02794,Kyritz,18.06.2025 13:20,52.9362,12.4093,50.4,25.2,24.6,10.9
02812,Lahr,18.06.2025 10:50,48.3647,7.8280,43.0,26.4,26.3,13.6
02814,Merklingen,18.06.2025 13:20,48.5122,9.7644,48.3,24.0,23.9,7.9
02856,Langenlipsdorf,18.06.2025 13:20,51.9173,13.0878,28.5,27.8,27.5,13.0
02878,"Lauchstädt,",18.06.2025 13:20,51.3909,11.8786,41.6,27.0,26.0,12.9
02907,Leck,18.06.2025 13:20,54.7903,8.9514,74.1,20.6,19.5,14.4
02925,Leinefelde,18.06.2025 13:20,51.3932,10.3123,47.7,24.2,24.0,12.7
02928,Leipzig-Holzhausen,18.06.2025 13:20,51.3151,12.4462,40.7,27.2,26.7,14.0
02932,Leipzig/Halle,18.06.2025 13:20,51.4347,12.2396,45.5,26.7,26.4,14.9
02947,Lennestadt-Theten,18.06.2025 13:20,51.1333,8.0348,42.5,25.3,24.7,10.7
02951,Lenzen/Elbe,18.06.2025 13:20,53.1007,11.4864,46.8,24.9,24.6,12.5
02953,Lenzkirch-Ruhbühl,18.06.2025 13:20,47.8597,8.2308,38.6,25.5,25.4,8.7
02961,Leuchtturm,18.06.2025 13:30,54.4996,10.2737,70.1,19.6,19.2,14.5
02985,Lichtenhain-Mittelndorf,18.06.2025 13:20,50.9383,14.2094,45.4,25.5,25.4,12.3
03015,Lindenberg,18.06.2025 13:30,52.2085,14.1180,34.0,27.1,26.9,16.0
03028,"Lippspringe,",18.06.2025 13:20,51.7854,8.8388,45.4,25.4,24.2,11.7
03031,Lippstadt-Bökenförde,18.06.2025 13:20,51.6336,8.3945,45.1,26.7,26.5,11.8
03032,List,18.06.2025 13:30,55.0110,8.4125,71.1,18.8,17.4,14.8
03034,"Lobenstein,",18.06.2025 13:20,50.4505,11.6350,42.0,26.1,26.1,9.3
03042,Löhnberg-Obershausen,18.06.2025 13:20,50.5617,8.2386,40.2,26.2,25.7,11.1
03083,Lübben-Blumenfelde,18.06.2025 13:20,51.9267,13.8797,34.3,29.0,28.6,13.4
03086,Lübeck-Blankensee,18.06.2025 13:30,53.8025,10.6989,55.2,23.7,22.9,12.9
03093,Lüchow,18.06.2025 13:20,52.9724,11.1374,49.4,24.7,24.7,10.7
03098,Lüdenscheid,18.06.2025 13:20,51.2452,7.6425,49.1,24.3,24.2,12.6
03126,Magdeburg,18.06.2025 13:20,52.1029,11.5827,42.4,26.9,26.9,15.2
03137,Mainz-Lerchenberg,18.06.2025 13:20,49.9658,8.2049,38.3,27.0,26.7,15.4
03147,Mallersdorf-Pfaffenberg-Oberlindhart,18.06.2025 13:20,48.7548,12.2118,43.7,26.5,26.5,10.2
03155,Manderscheid-Sonnenhof,18.06.2025 13:20,50.1015,6.8009,38.8,25.3,25.1,11.0
03158,Manschnow,18.06.2025 10:20,52.5468,14.5453,41.9,26.6,26.4,13.8
03164,"Cölbe,",18.06.2025 13:20,50.8492,8.7745,37.4,28.5,28.5,12.0
03166,Marienberg,18.06.2025 13:20,50.6511,13.1469,52.9,22.7,22.4,13.5
03167,"Marienberg,",18.06.2025 13:20,50.6621,7.9603,52.1,23.0,22.3,16.3
03181,Markt,18.06.2025 13:20,49.4875,10.6277,38.4,27.3,26.6,9.5
03196,Marnitz,18.06.2025 13:20,53.3221,11.9324,58.6,23.4,23.1,14.2
03204,Martinroda,18.06.2025 13:20,50.7335,10.8815,38.2,26.6,26.0,11.8
03226,Aschersleben-Mehringen,18.06.2025 13:20,51.7259,11.5109,39.8,26.5,26.1,12.6
03231,Meiningen,18.06.2025 13:20,50.5611,10.3771,38.9,25.7,24.5,12.9
03234,Klipphausen-Garsebach,18.06.2025 13:20,51.1294,13.4328,41.5,27.0,27.0,11.1
03244,Memmingen,18.06.2025 13:20,47.9821,10.1384,41.9,25.7,25.5,9.0
03257,"Mergentheim,",18.06.2025 13:20,49.4797,9.7832,35.4,27.9,27.6,11.3
03268,Meßstetten-Appental,18.06.2025 13:20,48.1694,8.9433,43.5,23.2,23.2,7.2
03271,Metten,18.06.2025 13:20,48.8548,12.9189,47.2,26.7,26.1,11.4
03278,Metzingen,18.06.2025 13:20,48.5377,9.2734,34.6,27.5,27.5,12.1
03284,Michelstadt,18.06.2025 13:20,49.6692,9.0085,35.8,27.9,27.2,12.1
03287,Michelstadt-Vielbrunn,18.06.2025 13:20,49.7177,9.0997,42.6,25.3,25.0,16.9
03289,Schmieritz-Weltwitz,18.06.2025 13:20,50.7281,11.7838,44.6,26.3,26.3,11.9
03307,Mittenwald-Buckelwiesen,18.06.2025 13:20,47.4814,11.2649,53.8,23.2,23.2,9.3
03319,Röllbach,18.06.2025 13:20,49.7644,9.2530,41.3,27.5,27.1,11.4
03321,Mönchengladbach-Hilderath,18.06.2025 13:20,51.1313,6.3608,38.8,26.4,25.8,14.0
03348,Moringen-Lutterbeck,18.06.2025 13:20,51.7209,9.8351,42.4,26.2,24.8,12.4
03362,Mühlacker,18.06.2025 13:20,48.9721,8.8735,44.1,27.4,27.1,10.2
03366,Mühldorf,18.06.2025 13:20,48.2790,12.5024,38.6,27.2,26.7,8.7
03376,Müncheberg,18.06.2025 13:20,52.5176,14.1232,43.1,26.5,25.6,12.9
03379,München-Stadt,18.06.2025 13:20,48.1632,11.5429,28.9,27.4,26.9,12.0
03402,Münsingen-Apfelstetten,18.06.2025 13:20,48.3851,9.4837,50.4,24.7,24.2,9.8
03426,"Muskau,",18.06.2025 13:20,51.5660,14.7008,33.9,27.7,27.7,10.8
03442,"Nauheim,",18.06.2025 13:20,50.3574,8.7506,36.2,28.7,28.6,13.1
03485,Neuburg/Kammel-Langenhaslach,18.06.2025 13:20,48.3114,10.3773,47.7,26.1,25.9,10.0
03490,"Neuenahr,",18.06.2025 13:20,50.5346,7.0853,50.6,26.2,25.6,15.0
03509,Stechlin-Menz,18.06.2025 13:20,53.1020,13.0421,52.6,23.5,23.3,11.2
03513,Neuhaus,18.06.2025 13:20,50.5003,11.1345,47.2,22.5,22.2,13.7
03527,Neukirchen-Hauptschwenda,18.06.2025 13:20,50.8923,9.4050,43.3,24.4,23.9,14.9
03540,Neunkirchen-Seelscheid-Krawinkel,18.06.2025 13:20,50.8446,7.3720,42.5,26.7,26.7,12.4
03545,Neunkirchen-Wellesweiler,18.06.2025 13:20,49.3440,7.2297,36.8,28.6,28.6,11.3
03571,Neustadt,18.06.2025 13:20,49.8174,11.8638,43.7,26.3,24.9,9.7
03591,Nideggen-Schmidt,18.06.2025 13:20,50.6743,6.4240,41.0,25.2,24.9,12.9
03612,Nienburg,18.06.2025 13:20,52.6711,9.2229,41.8,27.2,27.2,11.4
03621,Reimlingen,18.06.2025 13:20,48.8253,10.5067,43.7,25.9,25.5,10.0
03631,Norderney,18.06.2025 13:20,53.7123,7.1519,70.7,20.4,19.1,15.6
03660,Nürburg-Barweiler,18.06.2025 13:20,50.3602,6.8697,54.4,24.1,22.7,12.5
03667,Nürnberg-Netzstall,18.06.2025 13:20,49.4258,11.2539,34.5,27.5,27.4,8.4
03668,Nürnberg,18.06.2025 13:20,49.5030,11.0549,36.6,28.1,27.8,11.9
03679,Kiefersfelden-Gach,18.06.2025 13:20,47.6187,12.1665,53.5,26.5,26.5,10.8
03730,Oberstdorf,18.06.2025 13:20,47.3984,10.2759,50.3,25.7,25.7,8.6
03734,Obersulm-Willsbach,18.06.2025 13:20,49.1280,9.3525,40.1,28.2,28.0,12.5
03739,Oberviechtach,18.06.2025 13:20,49.4521,12.4365,49.7,24.3,24.2,11.6
03761,Öhringen,18.06.2025 13:20,49.2070,9.5176,40.7,27.4,27.2,13.5
03811,Oschatz,18.06.2025 13:20,51.2960,13.0928,42.0,27.2,26.4,14.8
03821,Osterfeld,18.06.2025 13:20,51.0872,11.9293,44.1,26.3,26.3,14.4
03836,Ostheim,18.06.2025 13:20,50.4538,10.2211,36.7,27.8,26.5,10.0
03857,Oy-Mittelberg-Petersthal,18.06.2025 13:20,47.6362,10.3892,47.3,25.0,24.5,9.1
03875,Parsberg/Oberpfalz-Eglwang,18.06.2025 13:20,49.1510,11.6897,41.4,25.9,25.7,11.1
03897,Pelzerhaken,18.06.2025 13:20,54.0893,10.8773,51.5,23.1,22.2,14.2
03904,Perl-Nennig,18.06.2025 13:20,49.5354,6.3789,37.6,28.1,27.8,11.2
03925,Pforzheim-Ispringen,18.06.2025 13:20,48.9329,8.6973,44.6,26.8,26.4,11.9
03927,Pfullendorf,18.06.2025 13:20,47.9345,9.2869,39.3,25.9,25.9,8.1
03939,Pirmasens,18.06.2025 13:20,49.1912,7.5879,39.7,26.6,26.6,13.5
03946,Plauen,18.06.2025 13:20,50.4818,12.1300,47.0,25.5,24.8,11.1
03975,Pommelsbrunn-Mittelburg,18.06.2025 13:20,49.4777,11.5357,41.4,25.6,24.9,12.8
03987,Potsdam,18.06.2025 13:30,52.3812,13.0622,40.4,28.1,27.1,16.2
04024,Putbus,18.06.2025 13:30,54.3643,13.4771,64.4,20.8,20.4,15.2
04032,Quedlinburg,18.06.2025 13:20,51.7953,11.1320,35.4,26.9,26.7,14.5
04036,Querfurt-Mühle,18.06.2025 13:20,51.3895,11.5412,27.9,28.8,28.2,13.6
04039,Quickborn,18.06.2025 13:20,53.7331,9.8776,61.2,22.7,22.4,10.9
04063,Rahden-Kleinendorf,18.06.2025 13:20,52.4461,8.5906,43.7,26.3,26.3,12.3
04094,"Weingarten,",18.06.2025 13:20,47.8062,9.6206,42.8,27.1,27.1,10.7
04104,Regensburg,18.06.2025 13:20,49.0425,12.1019,37.9,28.4,27.1,11.1
04127,Reichshof-Eckenhagen,18.06.2025 13:20,50.9906,7.6958,47.8,24.5,24.5,12.7
04160,Renningen-Ihinger,18.06.2025 13:20,48.7425,8.9240,44.7,26.3,25.0,10.6
04169,Rheinau-Memprechtshofen,18.06.2025 13:20,48.6703,7.9939,44.6,28.7,28.7,12.8
04175,Rheinfelden,18.06.2025 13:20,47.5590,7.7721,44.9,27.9,27.9,12.4
04177,Rheinstetten,18.06.2025 13:20,48.9726,8.3301,37.4,28.7,28.5,12.5
04189,"Altheim,",18.06.2025 13:20,48.1479,9.4596,43.8,25.9,25.7,9.2
04271,Rostock-Warnemünde,18.06.2025 13:20,54.1803,12.0808,67.1,20.5,20.1,15.9
04275,Rotenburg,18.06.2025 13:20,53.1289,9.3398,53.9,24.7,23.4,11.6
04280,Roth,18.06.2025 13:20,49.2162,11.1035,30.1,29.0,29.0,10.5
04287,Rothenburg,18.06.2025 13:20,49.3849,10.1732,39.3,27.7,26.2,11.4
04300,Rottweil,18.06.2025 13:20,48.1815,8.6356,36.5,26.5,26.2,8.4
04301,"Kreuznach,",18.06.2025 13:20,49.8502,7.8710,34.1,29.5,29.5,14.3
04323,Ruppertsecken,18.06.2025 13:20,49.6468,7.8837,41.0,25.9,25.6,15.9
04336,Saarbrücken-Ensheim,18.06.2025 13:20,49.2128,7.1077,45.0,27.2,26.7,13.2
04349,Sachsenheim,18.06.2025 13:20,48.9569,9.0711,42.0,27.5,27.4,12.8
04354,Saldenburg-Entschenreuth,18.06.2025 13:20,48.7832,13.3146,48.1,26.1,26.1,11.0
04371,"Salzuflen,",18.06.2025 13:20,52.1042,8.7521,39.3,25.9,25.9,13.5
04377,Sandberg,18.06.2025 13:20,50.3518,10.0034,40.1,24.9,24.0,16.2
04393,Sankt,18.06.2025 13:30,54.3279,8.6031,69.7,20.3,19.7,15.0
04411,Schaafheim-Schlierbach,18.06.2025 13:20,49.9195,8.9672,39.8,28.5,28.5,11.6
04445,Wernigerode-Schierke,18.06.2025 13:20,51.7658,10.6533,44.2,22.8,22.8,10.2
04464,Schleiz,18.06.2025 13:20,50.5679,11.8041,44.0,25.1,24.4,12.1
04466,Schleswig,18.06.2025 13:20,54.5275,9.5487,58.6,22.6,22.1,13.0
04480,Schlüchtern-Herolz,18.06.2025 13:20,50.3447,9.5533,39.7,27.0,26.7,10.9
04508,Schneifelforsthaus,18.06.2025 13:20,50.2968,6.4194,44.8,22.8,22.6,13.3
04548,Schönwald/Ofr.-Brunn,18.06.2025 13:20,50.1847,12.0791,44.6,24.9,24.9,11.0
04559,Schorndorf-Knöbling,18.06.2025 13:20,49.1644,12.6175,40.4,26.3,26.3,8.0
04592,Schwandorf,18.06.2025 13:20,49.3278,12.0871,37.1,28.0,27.6,11.7
04605,Schwarzburg,18.06.2025 13:20,50.6441,11.1936,37.9,27.0,26.4,11.5
04625,Schwerin,18.06.2025 13:20,53.6424,11.3871,56.8,23.3,22.3,13.7
04642,Seehausen,18.06.2025 13:20,52.8911,11.7297,45.7,26.5,25.1,12.9
04651,Seesen,18.06.2025 13:20,51.9040,10.1885,39.6,26.7,26.6,12.4
04703,Sigmaringen-Laiz,18.06.2025 13:20,48.0719,9.1943,44.5,26.2,25.6,8.6
04704,Sigmarszell-Zeisertsweiler,18.06.2025 13:20,47.5776,9.7404,56.5,25.7,25.7,11.5
04706,Simbach/Inn,18.06.2025 13:20,48.2718,13.0273,44.4,26.6,26.3,10.0
04709,Simmern-Wahlbach,18.06.2025 13:20,49.9996,7.5981,40.3,26.3,25.4,10.8
04745,Soltau,18.06.2025 13:20,52.9604,9.7930,52.7,24.1,23.6,11.6
04748,Sondershausen,18.06.2025 13:20,51.3691,10.8800,35.5,28.0,27.4,13.5
04763,Sontra,18.06.2025 13:20,51.0607,9.9266,44.8,26.6,26.6,11.6
04813,"Staffelstein,",18.06.2025 13:20,50.0806,11.0467,39.3,27.0,27.0,10.8
04841,"Steinau,",18.06.2025 13:20,53.6946,8.8735,64.7,22.2,21.8,11.1
04857,Mittelnkirchen-Hohenfelde,18.06.2025 13:20,53.5534,9.6097,56.0,23.5,23.4,11.3
04878,Oberharz,18.06.2025 13:20,51.6646,10.8811,46.4,23.8,23.8,10.0
04887,Stötten,18.06.2025 13:20,48.6656,9.8648,42.3,23.9,23.7,18.3
04911,Straubing,18.06.2025 13:20,48.8275,12.5597,44.8,26.4,26.4,10.2
04928,Stuttgart,18.06.2025 13:20,48.8281,9.2000,39.9,27.2,27.2,14.7
04931,Stuttgart-Echterdingen,18.06.2025 13:20,48.6883,9.2235,39.3,26.6,26.5,12.1
04978,Tann/Rhön,18.06.2025 13:20,50.6390,10.0228,69.4,25.8,25.8,11.7
04997,Starkenberg-Tegkwitz,18.06.2025 13:20,50.9771,12.3419,43.7,26.8,26.7,12.2
05009,Teterow,18.06.2025 13:20,53.7610,12.5574,55.0,22.9,22.4,15.2
05014,Worpswede-Hüttenbusch,18.06.2025 13:20,53.2758,8.9857,59.4,24.9,22.8,10.9
05017,Teuschnitz,18.06.2025 13:20,50.4002,11.3888,41.6,24.8,24.6,13.3
05029,Tholey,18.06.2025 13:20,49.4737,7.0385,38.5,26.9,26.4,15.9
05046,Tirschenreuth-Lodermühl,18.06.2025 13:20,49.8576,12.3542,43.1,26.4,25.1,9.7
05064,Tönisvorst,18.06.2025 13:20,51.2897,6.4437,40.0,27.6,27.6,13.8
05097,Tribsees,18.06.2025 13:20,54.0654,12.7655,62.7,21.4,21.4,12.6
05099,Trier-Zewen,18.06.2025 13:20,49.7326,6.6131,37.9,28.5,26.9,12.9
05100,Trier-Petrisberg,18.06.2025 13:20,49.7479,6.6583,38.8,27.4,27.4,13.1
05109,Trollenhagen,18.06.2025 13:20,53.5998,13.3039,53.8,23.2,23.2,15.1
05111,Trostberg,18.06.2025 13:20,48.0311,12.5396,42.6,26.2,26.2,10.8
05133,Twistetal-Mühlhausen,18.06.2025 13:20,51.3344,8.9132,40.2,27.6,26.6,11.8
05142,Ueckermünde,18.06.2025 13:30,53.7445,14.0698,57.7,21.5,21.3,13.9
05146,Uelzen,18.06.2025 13:20,52.9414,10.5289,54.2,25.1,23.7,11.1
05149,Gollhofen,18.06.2025 13:20,49.5679,10.1969,38.5,28.1,27.5,10.0
05158,Ummendorf,18.06.2025 13:20,52.1601,11.1759,45.4,25.0,24.6,14.6
05229,Villingen-Schwenningen,18.06.2025 13:20,48.0453,8.4608,36.6,27.0,26.5,9.2
05275,Waghäusel-Kirrlach,18.06.2025 13:20,49.2445,8.5374,33.5,29.7,29.3,13.9
05279,Wesertal-Lippoldsberg,18.06.2025 13:20,51.6194,9.5749,42.2,26.4,26.4,12.9
05280,Wittenborn,18.06.2025 13:20,53.9224,10.2267,57.8,23.1,22.2,12.6
05300,Waldems-Reinborn,18.06.2025 13:20,50.2596,8.3607,40.9,26.2,25.7,12.7
05335,Waltershausen,18.06.2025 13:20,50.8963,10.5483,39.6,26.8,26.2,12.7
05347,Warburg,18.06.2025 13:20,51.5039,9.1118,44.2,26.4,26.3,12.1
05349,Waren,18.06.2025 13:20,53.5196,12.6654,51.7,23.3,22.6,15.1
05371,Wasserkuppe,18.06.2025 13:20,50.4973,9.9427,49.5,21.5,21.5,14.4
05397,Weiden,18.06.2025 13:20,49.6662,12.1844,38.8,26.5,25.6,11.4
05404,Weihenstephan-Dürnast,18.06.2025 13:20,48.4024,11.6946,43.1,25.7,25.4,9.9
05424,Weimar-Schöndorf,18.06.2025 13:20,51.0177,11.3544,40.8,25.7,25.3,13.6
05426,Weinbiet,18.06.2025 13:20,49.3758,8.1212,42.1,26.2,24.9,18.0
05433,Weiskirchen/Saar,18.06.2025 13:20,49.5534,6.8120,39.6,27.5,27.5,14.9
05440,Weißenburg-Emetzheim,18.06.2025 13:20,49.0115,10.9308,34.5,26.7,26.4,10.4
05480,Werl,18.06.2025 13:20,51.5763,7.8879,47.9,26.0,26.0,12.3
05490,Wernigerode,18.06.2025 13:20,51.8454,10.7686,39.9,26.0,26.0,13.3
05516,Fehmarn,18.06.2025 13:20,54.5283,11.0606,78.3,19.1,18.6,15.5
05538,Wielenbach,18.06.2025 13:20,47.8827,11.1576,33.6,27.3,27.0,9.0
05541,Wiesbaden-Auringen,18.06.2025 13:20,50.1321,8.3169,37.3,26.9,26.3,12.7
05546,Wiesenburg,18.06.2025 13:20,52.1206,12.4586,35.7,26.5,26.5,15.0
05562,Neubulach-Oberhaugstett,18.06.2025 13:20,48.6516,8.6801,44.7,25.2,24.4,10.8
05629,Wittenberg,18.06.2025 13:20,51.8891,12.6446,29.1,27.8,27.7,15.1
05643,Wittstock-Rote,18.06.2025 13:20,53.1864,12.4949,51.5,25.2,25.2,12.1
05664,Wolfach,18.06.2025 13:20,48.2953,8.2391,41.1,28.9,28.6,11.7
05688,Dachsberg-Wolpadingen,18.06.2025 13:20,47.7004,8.1057,55.1,25.1,25.1,14.2
05692,Worms,18.06.2025 13:20,49.6051,8.3659,36.4,28.0,27.9,13.1
05705,Würzburg,18.06.2025 13:20,49.7704,9.9576,36.1,28.1,27.7,12.9
05717,Wuppertal-Buchenhofen,18.06.2025 13:20,51.2256,7.1052,36.0,26.4,25.7,12.2
05731,Wutöschingen-Ofteringen,18.06.2025 13:20,47.6783,8.3801,36.0,29.0,27.8,10.0
05745,Zehdenick,18.06.2025 13:20,52.9664,13.3268,48.8,25.4,24.3,12.2
05750,Zeitz,18.06.2025 13:20,51.0314,12.1495,40.1,26.8,26.8,16.9
05779,Zinnwald-Georgenfeld,18.06.2025 13:20,50.7313,13.7516,53.9,20.9,20.2,11.9
05792,Zugspitze,18.06.2025 10:30,47.4210,10.9848,43.1,10.9,10.9,6.5
05797,Lichtentanne,18.06.2025 13:20,50.6879,12.4329,48.6,25.5,25.2,12.4
05800,Zwiesel,18.06.2025 13:20,49.0280,13.2385,43.2,25.8,25.8,8.4
05822,Bassum,18.06.2025 13:20,52.8630,8.6989,59.2,24.5,23.9,11.8
05825,Berge,18.06.2025 13:20,52.6198,12.7867,45.5,26.6,26.0,14.2
05839,Emden,18.06.2025 13:20,53.3881,7.2287,56.2,23.7,22.0,14.1
05856,Fürstenzell,18.06.2025 13:20,48.5451,13.3532,41.5,25.8,25.0,12.6
05871,Hahn,18.06.2025 13:20,49.9463,7.2645,46.8,24.5,23.9,15.7
05906,Mannheim,18.06.2025 13:20,49.5063,8.5584,37.8,28.7,28.7,13.0
05930,Schönhagen,18.06.2025 13:30,54.6410,10.0238,62.6,21.6,21.1,13.7
06093,Wendisch,18.06.2025 13:20,53.2139,10.4704,63.1,24.0,22.2,12.8
06105,Ostenfeld,18.06.2025 13:20,54.3194,9.8051,64.6,22.1,20.9,13.3
06109,Grambow-Schwennenz,18.06.2025 13:20,53.3837,14.3728,53.2,23.0,22.9,12.2
06129,Sohland/Spree,18.06.2025 13:20,51.0594,14.4266,49.8,25.5,24.4,8.3
06157,Wangerland-Hooksiel,18.06.2025 13:20,53.6411,8.0809,65.5,21.8,20.9,14.3
06158,Weidenbach-Weiherschneidbach,18.06.2025 13:20,49.2249,10.6085,37.4,27.6,26.8,9.8
06159,Dörpen,18.06.2025 13:20,52.9542,7.3197,64.7,25.2,23.6,10.9
06163,Dörnick,18.06.2025 13:20,54.1654,10.3519,62.3,21.9,21.2,11.4
06170,Coschen,18.06.2025 13:20,52.0192,14.7254,33.4,29.4,27.9,13.1
06197,Lügde-Paenbruch,18.06.2025 13:20,51.8664,9.2710,46.3,24.4,24.4,12.0
06199,Steinhagen-Negast,18.06.2025 13:20,54.2484,13.0419,62.1,20.5,20.3,13.4
06217,Saarbrücken-Burbach,18.06.2025 13:20,49.2406,6.9351,36.0,29.2,27.6,12.3
06258,Friedrichshafen-Unterraderach,18.06.2025 13:20,47.6845,9.4409,48.5,26.3,25.9,13.9
06259,Großerlach-Mannenweiler,18.06.2025 13:20,49.0210,9.6033,47.5,25.4,25.4,15.1
06260,Ingelfingen-Stachenhausen,18.06.2025 13:20,49.3328,9.7040,44.7,27.1,25.7,11.8
06262,Schwäbisch,18.06.2025 13:20,48.7695,9.8737,38.0,26.9,26.5,10.8
06263,Singen,18.06.2025 13:20,47.7738,8.8219,36.9,28.0,27.9,10.6
06264,Brilon-Thülen,18.06.2025 13:20,51.4140,8.6500,51.4,24.6,24.0,11.1
06265,Wusterwitz,18.06.2025 13:20,52.3613,12.3867,39.7,27.3,26.7,14.2
06266,Huy-Pabstorf,18.06.2025 13:20,52.0304,10.9626,43.3,27.2,25.7,16.1
06272,"Salzungen,",18.06.2025 13:20,50.8426,10.2518,43.5,26.3,25.4,11.1
06273,Demker,18.06.2025 13:20,52.5075,11.8551,44.4,27.2,26.1,13.4
06275,Notzingen,18.06.2025 13:20,48.6705,9.4627,38.0,27.9,27.4,9.6
06305,Mühlhausen/Thüringen-Görmar,18.06.2025 13:20,51.2061,10.4978,35.6,26.7,26.4,11.4
06310,Karlshagen,18.06.2025 13:20,54.1049,13.8239,58.6,21.8,21.1,12.8
06314,Nossen,18.06.2025 13:20,51.0507,13.3003,45.5,25.0,24.7,15.5
06336,Lohr/Main-Halsbach,18.06.2025 13:20,50.0132,9.6540,36.4,26.5,26.5,10.8
06337,Lüdinghausen-Brochtrup,18.06.2025 13:20,51.7663,7.5194,41.3,26.5,26.4,12.6
06344,Runkel-Ennerich,18.06.2025 13:20,50.3940,8.1423,47.5,26.5,26.2,11.2
06346,Maisach-Galgen,18.06.2025 13:20,48.2070,11.2035,43.4,25.8,25.4,10.1
06347,Schonungen-Mainberg,18.06.2025 13:20,50.0579,10.2972,35.6,28.8,28.0,12.8
07075,Elsendorf-Horneck,18.06.2025 13:20,48.7020,11.8493,38.4,26.4,26.4,10.9
07105,Siegsdorf-Höll,18.06.2025 13:20,47.8350,12.6548,52.0,24.7,24.7,10.9
07106,Bielefeld-Deppendorf,18.06.2025 13:20,52.0714,8.4565,43.7,26.5,25.8,10.4
07187,Freudenberg/Main-Boxtal,18.06.2025 13:20,49.7636,9.4063,36.9,27.6,27.6,11.7
07298,Hattstedt,18.06.2025 13:20,54.5268,9.0425,67.7,21.5,20.9,13.9
07319,Donauwörth-Osterweiler,18.06.2025 13:20,48.7374,10.7393,36.8,26.3,26.3,10.3
07321,Olbersleben,18.06.2025 13:20,51.1507,11.3321,40.7,27.3,27.3,11.3
07329,Treuen,18.06.2025 13:20,50.5467,12.2863,50.3,25.5,25.5,11.6
07330,Arnsberg-Neheim,18.06.2025 13:20,51.4633,7.9780,41.5,26.1,25.8,8.9
07331,Hermaringen-Allewind,18.06.2025 13:20,48.6099,10.2674,51.9,25.5,25.5,8.8
07341,Offenbach-Wetterpark,18.06.2025 13:20,50.0900,8.7862,40.4,27.1,26.9,13.4
07343,Deutschneudorf-Brüderwiese,18.06.2025 13:20,50.6200,13.4817,56.2,23.9,22.6,7.5
07351,Feldberg/Mecklenburg,18.06.2025 13:20,53.3176,13.4175,56.3,22.9,21.7,12.8
07364,Jeßnitz,18.06.2025 13:20,51.6818,12.3053,35.8,27.4,27.2,14.3
07367,Alfeld,18.06.2025 13:20,51.9643,9.8072,38.8,25.5,25.5,11.7
07368,Eisenach,18.06.2025 13:20,51.0007,10.3621,38.8,25.5,25.5,13.8
07369,Feuchtwangen-Heilbronn,18.06.2025 13:20,49.1623,10.3661,40.5,26.2,25.8,9.3
07370,Waldmünchen,18.06.2025 13:20,49.3910,12.6838,47.9,25.7,25.4,9.6
07373,Borkum-Flugplatz,18.06.2025 13:20,53.5984,6.7024,68.5,21.6,19.8,13.8
07374,Ahaus,18.06.2025 13:20,52.0813,6.9409,46.5,26.7,26.7,11.9
07389,Heckelberg,18.06.2025 13:20,52.7461,13.8427,45.3,25.9,24.8,13.6
07393,Hoyerswerda,18.06.2025 13:20,51.4492,14.2533,35.8,27.8,27.8,10.6
07394,Wunsiedel-Schönbrunn,18.06.2025 13:20,50.0315,11.9745,46.6,24.3,23.9,13.7
07395,Gottfrieding,18.06.2025 13:20,48.6595,12.5388,44.1,26.3,26.3,10.4
07396,Hoherodskopf/Vogelsberg,18.06.2025 13:20,50.5084,9.2246,54.6,21.3,21.2,16.4
07403,Leutkirch-Herlazhofen,18.06.2025 13:20,47.7955,10.0325,44.7,25.3,25.3,8.0
07410,Neu-Ulrichstein,18.06.2025 13:20,50.7513,9.0224,38.7,25.3,25.1,13.6
07412,Neuhütten/Spessart,18.06.2025 13:20,50.0083,9.4238,43.8,25.6,25.6,10.4
07419,Langenwetzendorf-Göttendorf,18.06.2025 13:20,50.6610,12.0756,46.9,25.7,25.3,11.9
07420,Naumburg/Saale-Kreipitzsch,18.06.2025 13:20,51.1045,11.7113,47.2,25.3,25.2,13.9
07424,Piding,18.06.2025 13:20,47.7724,12.9073,52.8,26.5,26.5,9.0
07427,Padenstedt,18.06.2025 13:20,54.0188,9.9255,61.9,21.6,21.3,12.5
07428,Veilsdorf,18.06.2025 13:20,50.4167,10.8156,34.7,28.4,28.2,10.7
07431,Oberhaching-Laufzorn,18.06.2025 13:20,48.0130,11.5524,37.4,27.2,27.2,8.1
07432,Wittingen-Vorhop,18.06.2025 13:20,52.6423,10.6628,43.6,26.2,25.7,10.0
13670,Duisburg-Baerl,18.06.2025 13:20,51.5088,6.7018,46.8,27.5,27.5,13.6
13674,Waibstadt,18.06.2025 13:20,49.2943,8.9053,41.6,28.2,27.5,13.1
13675,Hameln-Hastenbeck,18.06.2025 13:20,52.0818,9.4077,42.8,26.8,26.3,11.1
13696,Waltrop-Abdinghof,18.06.2025 13:20,51.5966,7.4048,39.8,26.4,26.4,12.1
13700,Gevelsberg-Oberbröking,18.06.2025 13:20,51.3329,7.3412,41.8,25.1,25.1,12.3
13710,Landshut-Reithof,18.06.2025 13:20,48.5734,12.2576,45.0,25.9,25.7,14.6
13711,Krölpa-Rockendorf,18.06.2025 13:20,50.6820,11.5150,40.1,26.7,26.5,12.6
13713,Meinerzhagen-Redlendorf,18.06.2025 13:20,51.0899,7.6289,49.7,23.8,23.4,12.2
13777,Helmstedt-Emmerstedt,18.06.2025 13:20,52.2467,10.9592,43.8,26.0,25.4,11.1
13965,Balingen-Bronnhaupten,18.06.2025 13:20,48.2639,8.8134,45.1,25.3,25.2,9.1
15000,Aachen-Orsbach,18.06.2025 13:20,50.7983,6.0244,45.2,24.9,24.9,13.7
15207,Schauenburg-Elgershausen,18.06.2025 13:20,51.2835,9.3590,47.1,25.6,25.0,13.9
15444,Ulm-Mähringen,18.06.2025 13:20,48.4418,9.9216,46.2,24.4,24.2,8.5
15555,Kaufbeuren-Oberbeuren,18.06.2025 13:20,47.8761,10.5849,49.0,23.7,23.2,12.5
15813,Lingen-Baccum,18.06.2025 13:20,52.5126,7.4131,43.9,26.8,25.9,12.0
19171,Hasenkrug-Hardebek,18.06.2025 13:20,54.0039,9.8555,62.5,22.7,21.2,11.6
19172,Wacken,18.06.2025 13:20,54.0246,9.3880,65.5,21.3,20.4,13.0
19207,Gülzow-Prüzen,18.06.2025 13:20,53.8178,12.0645,53.8,23.2,23.2,13.6
19856,Schönau,18.06.2025 13:20,47.6134,12.9819,51.7,25.1,25.1,9.8
20098,Seebach,18.06.2025 13:20,48.5651,8.2284,56.9,21.8,21.6,13.9
